City_ID,City,Lat,Lng,Max Temp,Humidity,Cloudiness,Wind Speed,Country,Date
0,Grindavik,63.8424,-22.4338,4.26,87,100,6.17,IS,1680469662
1,Bambous Virieux,-20.3428,57.7575,26.23,81,83,4.19,MU,1680469662
2,Darhan,49.4867,105.9228,-10.94,48,4,0.77,MN,1680469663
3,Punta Arenas,-53.15,-70.9167,16.06,36,75,7.2,CL,1680469663
4,Albany,42.6001,-73.9662,7.12,26,11,1.79,US,1680469530
5,Kodiak,57.79,-152.4072,2.73,48,0,7.72,US,1680469664
6,Birin,26.8865,88.0718,10.26,74,4,2.42,NP,1680469664
7,Jalu,29.0331,21.5482,21.42,12,0,5.69,LY,1680469664
8,Longyearbyen,78.2186,15.6401,-8.09,93,75,2.06,SJ,1680469664
9,Yellowknife,62.456,-114.3525,-8.19,78,100,0.87,CA,1680469664
10,Fortuna,40.5982,-124.1573,9.08,88,99,3.69,US,1680469664
11,Zhigansk,66.7697,123.3711,-6.99,94,100,9.16,RU,1680469665
12,Jamestown,42.097,-79.2353,8.07,35,0,1.54,US,1680469389
13,Kapaa,22.0752,-159.319,27.33,79,0,3.6,US,1680469665
14,Vaini,-21.2,-175.2,28.09,69,20,5.14,TO,1680469665
15,Tuktoyaktuk,69.4541,-133.0374,-19.0,71,20,4.63,CA,1680469393
16,Ambon,-3.6954,128.1814,23.08,94,20,1.03,ID,1680469666
17,Ariquemes,-9.9133,-63.0408,26.04,83,100,0.94,BR,1680469666
18,Deputatskiy,69.3,139.9,-23.61,91,91,1.57,RU,1680469666
19,Vardo,70.3705,31.1107,-4.01,86,100,6.17,NO,1680469666
20,Arraial Do Cabo,-22.9661,-42.0278,23.92,78,75,7.72,BR,1680469666
21,Tiksi,71.6872,128.8694,-8.79,78,100,9.59,RU,1680469666
22,Kinablangan,7.6947,126.5503,24.77,86,98,2.4,PH,1680469667
23,Port Elizabeth,-33.918,25.5701,20.73,89,100,4.92,ZA,1680469667
24,Mount Pleasant,32.7941,-79.8626,24.54,55,0,4.12,US,1680469546
25,Little Current,45.9793,-81.9248,2.45,55,85,4.02,CA,1680469667
26,Hithadhoo,-0.6,73.0833,27.84,71,14,2.9,MV,1680469668
27,Ushuaia,-54.8,-68.3,12.81,47,0,3.09,AR,1680469669
28,Mataura,-46.1927,168.8643,9.15,82,81,0.89,NZ,1680469670
29,Voh,-20.9667,164.7,26.61,73,20,1.36,NC,1680469670
30,Los Llanos De Aridane,28.6585,-17.9182,18.96,72,100,6.17,ES,1680469670
31,Carutapera,-1.195,-46.02,24.19,93,99,2.46,BR,1680469440
32,Tawau,4.2498,117.8871,24.53,91,98,2.69,MY,1680469670
33,Sioux Lookout,50.1001,-91.917,3.81,71,100,2.82,CA,1680469670
34,Teguldet,57.3064,88.1667,-6.33,88,100,4.21,RU,1680469671
35,Busselton,-33.65,115.3333,14.87,92,1,4.3,AU,1680469543
36,Rikitea,-23.1203,-134.9692,26.76,81,30,6.91,PF,1680469671
37,Ancud,-41.8697,-73.8203,13.4,59,4,2.24,CL,1680469671
38,East London,-33.0153,27.9116,22.51,86,100,2.01,ZA,1680469671
39,Mar Del Plata,-38.0023,-57.5575,23.01,73,0,3.6,AR,1680469597
40,Pacific Grove,36.6177,-121.9166,16.5,63,75,5.66,US,1680469437
41,Dikson,73.5069,80.5464,-24.04,94,100,5.88,RU,1680469672
42,Carbondale,37.7273,-89.2168,19.47,42,0,7.72,US,1680469640
43,Hermanus,-34.4187,19.2345,19.33,97,10,2.08,ZA,1680469672
44,Ribeira Grande,38.5167,-28.7,13.76,64,63,3.58,PT,1680469672
45,Henties Bay,-22.116,14.2845,16.29,88,13,2.81,NA,1680469673
46,Cayenne,4.9333,-52.3333,27.02,74,0,4.12,GF,1680469673
47,Bethel,41.3712,-73.414,10.83,26,0,5.14,US,1680469673
48,Nabire,-3.3667,135.4833,22.92,93,100,2.5,ID,1680469673
49,Omboue,-1.5746,9.2618,25.38,87,39,3.06,GA,1680469673
50,Yerbogachen,61.2767,108.0108,-10.97,91,100,4.62,RU,1680469674
51,Sungairaya,0.7,108.9,25.11,85,100,0.71,ID,1680469674
52,Cherskiy,68.75,161.3,-32.02,97,36,1.85,RU,1680469674
53,Barrow,71.2906,-156.7887,-13.99,78,100,6.69,US,1680469569
54,Baghdad,33.3406,44.4009,15.95,44,0,1.03,IQ,1680469674
55,Ust-Tsilma,65.441,52.1498,-14.78,100,77,1.02,RU,1680469675
56,Kahului,20.8947,-156.47,23.5,74,100,3.67,US,1680469382
57,Shingu,33.7333,135.9833,13.57,86,100,5.84,JP,1680469675
58,Knysna,-34.0363,23.0471,18.83,80,60,3.46,ZA,1680469675
59,Sorland,67.667,12.6934,1.92,61,100,8.53,NO,1680469676
60,Shenzhen,22.5455,114.0683,21.97,93,87,5.58,CN,1680469676
61,Alugan,12.2188,125.4808,25.36,77,83,2.37,PH,1680469677
62,Saint George,37.1041,-113.5841,20.8,20,0,2.57,US,1680469603
63,Saint-Pierre,-21.3393,55.4781,23.82,83,0,1.54,RE,1680469678
64,Pisco,-13.7,-76.2167,27.03,69,20,8.75,PE,1680469678
65,Sisimiut,66.9395,-53.6735,-10.49,73,100,2.76,GL,1680469678
66,Qaanaaq,77.484,-69.3632,-24.06,70,6,0.77,GL,1680469679
67,Sosnovo-Ozerskoye,52.5249,111.5418,-11.96,57,99,7.3,RU,1680469679
68,Manaus,-3.1019,-60.025,27.28,83,75,1.54,BR,1680469679
69,Hobart,-42.8794,147.3294,11.7,83,20,4.12,AU,1680469680
70,Ulladulla,-35.35,150.4667,14.56,81,15,1.52,AU,1680469680
71,Rantepao,-2.9701,119.8978,19.27,98,100,0.67,ID,1680469680
72,Airai,-8.9266,125.4092,14.85,94,37,0.59,TL,1680469421
73,Zyryanka,65.75,150.85,-24.44,98,84,3.31,RU,1680469681
74,Atuona,-9.8,-139.0333,27.24,77,40,7.2,PF,1680469681
75,Carnarvon,-24.8667,113.6333,23.55,79,62,4.92,AU,1680469681
76,Chokurdakh,70.6333,147.9167,-25.31,96,75,4.77,RU,1680469682
77,Butaritari,3.0707,172.7902,27.46,77,20,4.34,KI,1680469683
78,Carauari,-4.8828,-66.8958,26.14,88,69,0.95,BR,1680469683
79,Lebu,-37.6167,-73.65,13.83,75,0,6.66,CL,1680469683
80,Teruel,40.6667,-0.6667,1.01,84,21,8.64,ES,1680469684
81,Angoche,-16.2325,39.9086,24.99,87,100,5.25,MZ,1680469685
82,Danjiangkou,32.5428,111.5086,15.73,95,100,2.97,CN,1680469686
83,Angoram,-4.0625,144.0661,23.41,99,100,0.81,PG,1680469686
84,Chupa,66.27,33.0549,-15.64,98,17,1.21,RU,1680469686
85,Candido Mendes,-1.4467,-45.7167,23.9,95,97,1.35,BR,1680469686
86,Udachnyy,66.4167,112.4,-5.86,73,100,11.24,RU,1680469687
87,Salalah,17.0151,54.0924,28.05,83,75,3.6,OM,1680469687
88,Lasa,46.6166,10.7002,5.76,93,56,2.7,IT,1680469687
89,Naze,28.3667,129.4833,17.32,73,4,9.37,JP,1680469688
90,Bilma,18.6853,12.9164,25.08,6,98,3.88,NE,1680469688
91,Cidreira,-30.1811,-50.2056,21.21,64,9,3.02,BR,1680469689
92,Nouadhibou,20.931,-17.0347,22.99,64,1,4.12,MR,1680469689
93,Strelka,58.0728,93.0344,-7.12,88,100,3.49,RU,1680469690
94,Gorontalo,0.5412,123.0595,22.8,94,92,1.41,ID,1680469691
95,Pecos,31.4229,-103.4932,29.46,6,0,7.72,US,1680469691
96,Murwara,23.85,80.4,24.12,39,14,0.59,IN,1680469691
97,Chuy,-33.6971,-53.4616,19.4,62,97,2.56,UY,1680469691
98,Harper,4.375,-7.7169,26.67,83,44,2.66,LR,1680469692
99,Pucallpa,-8.3791,-74.5539,30.02,66,75,1.54,PE,1680469692
100,Taiyuan,37.8694,112.5603,10.92,76,100,3.0,CN,1680469693
101,Yar-Sale,66.8333,70.8333,-10.11,85,52,4.74,RU,1680469693
102,Georgetown,5.4112,100.3354,25.96,83,20,0.0,MY,1680469694
103,Port Alfred,-33.5906,26.891,20.66,95,100,0.45,ZA,1680469694
104,Hay River,60.8156,-115.7999,-8.02,62,100,2.57,CA,1680469695
105,Bluff,-46.6,168.3333,9.33,74,95,3.5,NZ,1680469695
106,Otane,-39.8833,176.6333,16.12,71,44,3.48,NZ,1680469695
107,Lisakovsk,52.5369,62.4936,-0.72,76,0,3.51,KZ,1680469696
108,Saldanha,-33.0117,17.9442,17.01,94,45,5.47,ZA,1680469696
109,Brae,60.3964,-1.353,6.36,86,52,2.11,GB,1680469696
110,Maraba,-5.3686,-49.1178,26.1,83,75,2.57,BR,1680469696
111,Springbok,-29.6643,17.8865,11.89,89,1,2.12,ZA,1680469697
112,Komatipoort,-25.4332,31.9548,22.81,95,12,0.58,ZA,1680469698
113,Ahipara,-35.1667,173.1667,18.09,68,98,4.74,NZ,1680469698
114,Peleduy,59.6289,112.7406,-17.65,99,91,1.87,RU,1680469699
115,Avarua,-21.2078,-159.775,26.03,73,75,4.12,CK,1680469700
116,Oranjemund,-28.55,16.4333,17.38,78,84,4.03,NA,1680469701
117,Zvishavane,-20.3267,30.0665,16.99,89,11,1.43,ZW,1680469702
118,San Cristobal,7.7669,-72.225,26.1,59,95,2.57,VE,1680469702
119,Dingle,10.9995,122.6711,22.97,88,99,2.59,PH,1680469703
120,Puerto Ayora,-0.7393,-90.3518,29.98,89,85,4.92,EC,1680469703
121,Cape Town,-33.9258,18.4232,21.32,85,75,4.63,ZA,1680469476
122,Lavrentiya,65.5833,-171.0,-16.3,78,15,1.34,RU,1680469704
123,Nantucket,41.2835,-70.0995,8.06,45,0,5.14,US,1680469705
124,Jurado,7.1053,-77.7641,27.95,81,89,2.02,CO,1680469705
125,Nouakchott,18.0858,-15.9785,32.96,29,5,4.83,MR,1680469706
126,Sioux Falls,43.55,-96.7003,10.92,56,20,4.63,US,1680469451
127,Mayo,38.8876,-76.5119,15.1,34,0,4.12,US,1680469706
128,Tecoanapa,16.5167,-98.75,30.42,55,4,5.07,MX,1680469707
129,Tessalit,20.1986,1.0114,27.06,6,9,3.47,ML,1680469707
130,Maldonado,-34.6667,-54.9167,20.68,59,63,1.74,UY,1680469706
131,Acurenam,1.0322,10.6488,20.37,98,31,1.36,GQ,1680469708
132,Vanimo,-2.6741,141.3028,25.04,87,100,1.48,PG,1680469708
133,Cap Malheureux,-19.9842,57.6142,26.37,78,100,1.34,MU,1680469709
134,Pietersburg,-23.9045,29.4688,16.41,79,49,3.0,ZA,1680469709
135,Ilulissat,69.2167,-51.1,-13.99,85,99,2.06,GL,1680469567
136,Tara,56.8944,74.371,-4.76,85,11,2.84,RU,1680469710
137,Tasiilaq,65.6145,-37.6368,-1.91,87,100,2.39,GL,1680469710
138,Pizarro,4.9533,-77.366,27.83,78,95,2.28,CO,1680469711
139,Pafos,34.7667,32.4167,12.88,82,0,3.09,CY,1680469711
140,Hualmay,-11.0964,-77.6139,25.84,76,54,3.5,PE,1680469712
141,Adre,13.4667,22.2,27.07,14,45,3.24,TD,1680469712
142,Awjilah,29.1081,21.2869,21.99,12,0,5.89,LY,1680469713
143,Lorengau,-2.0226,147.2712,26.9,79,99,1.45,PG,1680469713
144,Axim,4.8699,-2.2405,26.95,86,23,2.75,GH,1680469713
145,Olafsvik,64.8945,-23.7142,4.43,81,100,4.18,IS,1680469713
146,Padang,-0.9492,100.3543,24.58,88,100,1.72,ID,1680469714
147,Bosaso,11.2842,49.1816,27.86,73,76,0.95,SO,1680469715
148,La Ronge,55.1001,-105.2842,-7.42,86,100,5.14,CA,1680469715
149,Klyuchi,52.2667,79.1667,-3.53,51,89,2.56,RU,1680469715
150,Kamaishi,39.2667,141.8833,4.64,81,8,2.53,JP,1680469715
151,Clyde River,70.4692,-68.5914,-22.38,93,8,0.79,CA,1680469716
152,Rio Gallegos,-51.6226,-69.2181,14.03,44,0,5.66,AR,1680469718
153,Lorica,9.2365,-75.8135,29.44,69,97,4.52,CO,1680469718
154,Nikolskoye,59.7035,30.7861,-0.05,96,99,5.04,RU,1680469719
155,Bathsheba,13.2167,-59.5167,28.34,65,20,9.77,BB,1680469719
156,Tura,25.5198,90.2201,17.54,82,64,1.76,IN,1680469720
157,Hilo,19.7297,-155.09,26.27,89,100,3.13,US,1680469721
158,Yulara,-25.2406,130.9889,21.98,45,97,4.25,AU,1680469721
159,Katsuura,35.1333,140.3,11.54,71,100,8.98,JP,1680469721
160,Talnakh,69.4865,88.3972,-11.55,96,100,3.19,RU,1680469722
161,Suntar,62.1444,117.6319,-13.44,92,11,3.28,RU,1680469722
162,Along,28.1667,94.7667,14.38,97,100,0.84,IN,1680469631
163,Passi,11.15,122.65,23.68,90,100,1.76,PH,1680469723
164,Freeport,40.6576,-73.5832,12.3,22,0,5.66,US,1680469723
165,Sibolga,1.7427,98.7792,23.27,95,100,1.16,ID,1680469723
166,Hobyo,5.3505,48.5268,28.63,75,26,6.12,SO,1680469724
167,Anloga,5.7947,0.8973,28.03,83,60,5.57,GH,1680469724
168,Dunedin,-45.8742,170.5036,13.22,63,6,1.34,NZ,1680469724
169,Leningradskiy,69.3833,178.4167,-22.44,89,100,3.74,RU,1680469724
170,Narsaq,60.9167,-46.05,5.12,75,100,2.41,GL,1680469725
171,Price,39.5994,-110.8107,15.62,20,0,7.72,US,1680469725
172,Wenling,28.3669,121.36,11.99,87,100,1.48,CN,1680469726
173,Havelock,34.8791,-76.9013,18.98,52,0,2.24,US,1680469627
174,Te Anau,-45.4167,167.7167,7.31,79,37,0.62,NZ,1680469726
175,West Des Moines,41.572,-93.7453,22.08,24,75,7.72,US,1680469571
176,Miyako,39.6367,141.9525,4.23,78,6,1.33,JP,1680469727
177,Irbit,57.6705,63.071,2.53,85,76,2.16,RU,1680469727
178,Dicabisagan,17.0818,122.4157,23.25,90,88,1.38,PH,1680469728
179,Severo-Kurilsk,50.6789,156.125,-0.25,87,99,6.81,RU,1680469728
180,Codrington,-38.2667,141.9667,8.79,93,0,2.83,AU,1680469728
181,Esmeraldas,-19.7625,-44.3139,25.58,85,100,2.52,BR,1680469512
182,Iqaluit,63.7506,-68.5145,-11.15,57,75,4.63,CA,1680469530
183,Klaksvik,62.2266,-6.589,6.51,82,100,4.74,FO,1680469729
184,Cairns,-16.9167,145.7667,25.04,100,31,0.0,AU,1680469729
185,Vao,-22.6667,167.4833,25.32,81,45,2.63,NC,1680469729
186,Kawalu,-7.3817,108.2082,21.77,96,100,0.38,ID,1680469730
187,Tautira,-17.7333,-149.15,28.15,71,82,3.13,PF,1680469730
188,Katherine,-14.4667,132.2667,24.18,88,35,0.0,AU,1680469730
189,Faanui,-16.4833,-151.75,28.07,73,100,3.75,PF,1680469730
190,Khatanga,71.9667,102.5,-11.53,95,100,4.41,RU,1680469731
191,Ponta Do Sol,32.6667,-17.1,20.4,81,0,1.67,PT,1680469731
192,Genthin,52.4,12.1667,2.92,73,32,4.71,DE,1680469731
193,Coquimbo,-29.9533,-71.3436,17.85,88,40,5.14,CL,1680469623
194,Rohri,27.6922,68.8951,23.93,57,42,0.0,PK,1680469732
195,Souillac,-20.5167,57.5167,25.07,85,95,3.55,MU,1680469732
196,Boende,-0.2167,20.8667,24.46,71,52,0.4,CD,1680469732
197,Saint-Georges,12.0564,-61.7485,27.82,74,20,10.29,GD,1680469733
198,Riyadh,24.6877,46.7219,16.08,20,0,3.74,SA,1680469500
199,Provideniya,64.3833,-173.3,-11.94,61,0,2.0,RU,1680469733
200,Kuytun,54.3419,101.5036,-15.62,94,84,1.59,RU,1680469733
201,Zhuhai,22.2769,113.5678,21.88,88,40,5.14,CN,1680469733
202,Kozhevnikovo,56.2589,83.9714,-5.91,85,100,4.66,RU,1680469734
203,Norman Wells,65.282,-126.8329,-6.42,76,98,0.36,CA,1680469734
204,Komsomolskiy,40.4272,71.7189,13.4,76,95,3.09,UZ,1680469734
205,Coolum Beach,-26.5333,153.1,21.17,81,33,4.54,AU,1680469734
206,Hirara,24.8,125.2833,21.32,60,63,6.26,JP,1680469735
207,Sakakah,29.9697,40.2064,17.14,21,0,2.4,SA,1680469735
208,Mehamn,71.0357,27.8492,-2.05,74,40,5.14,NO,1680469735
209,Nelson Bay,-32.7167,152.15,17.78,97,26,2.68,AU,1680469736
210,Panaba,21.2833,-88.2667,34.86,34,22,7.19,MX,1680469736
211,Erice,38.037,12.5865,7.26,74,99,1.52,IT,1680469736
212,Verbivka,49.4167,35.5333,8.46,71,100,5.59,UA,1680469736
213,Champerico,14.3,-91.9167,34.3,61,90,6.15,GT,1680469736
214,Prince Rupert,54.3161,-130.3201,5.83,75,40,3.6,CA,1680469532
215,Caravelas,-17.7125,-39.2481,26.33,76,44,4.69,BR,1680469737
216,Mora,11.0461,14.1401,28.75,16,14,2.37,CM,1680469737
217,Puerto Madryn,-42.7692,-65.0385,17.33,48,7,6.06,AR,1680469627
218,Hasaki,35.7333,140.8333,9.01,65,100,10.06,JP,1680469737
219,Samarai,-10.6167,150.6667,28.11,78,82,3.52,PG,1680469737
220,North Platte,41.1239,-100.7654,20.94,25,0,5.66,US,1680469738
221,Kandrian,-6.2167,149.55,25.3,87,74,1.49,PG,1680469738
222,Honiara,-9.4333,159.95,26.93,83,94,1.71,SB,1680469738
223,College,64.8569,-147.8028,-0.52,84,100,6.17,US,1680469601
224,Asau,46.4333,26.4,8.51,92,100,1.63,RO,1680469738
225,Mikhaylov,54.2292,39.0186,5.3,82,94,2.41,RU,1680469739
226,Tigil,57.8,158.6667,-3.43,93,100,3.21,RU,1680469739
227,Petrolina,-9.3986,-40.5008,30.03,54,40,2.57,BR,1680469739
228,Comodoro Rivadavia,-45.8667,-67.5,18.92,27,0,5.14,AR,1680469739
229,Flin Flon,54.7682,-101.865,-9.21,80,100,5.46,CA,1680469740
230,Saint-Philippe,-21.3585,55.7679,23.77,83,99,4.53,RE,1680469740
231,Coahuayana,18.7333,-103.6833,31.38,43,100,3.67,MX,1680469740
232,Cassilandia,-19.1133,-51.7342,25.21,77,21,1.72,BR,1680469652
233,Margate,51.3813,1.3862,6.61,73,8,3.13,GB,1680469740
234,Santa Rosa,14.3122,121.1114,26.99,87,91,2.64,PH,1680469574
235,Kondagaon,19.6,81.6667,22.75,41,20,1.8,IN,1680469741
236,New Norfolk,-42.7826,147.0587,11.51,75,64,1.11,AU,1680469741
237,Waddan,29.1614,16.139,23.71,10,0,6.08,LY,1680469741
238,Luderitz,-26.6481,15.1594,16.2,86,4,4.14,NA,1680469742
239,Pevek,69.7008,170.3133,-29.12,100,100,0.68,RU,1680469742
240,Karibib,-21.9333,15.8333,18.01,40,12,0.07,NA,1680469743
241,Torbay,47.6666,-52.7314,7.43,83,100,5.14,CA,1680469548
242,Saint-Joseph,-21.3667,55.6167,23.21,81,100,3.92,RE,1680469743
243,Kieta,-6.2167,155.6333,27.18,80,43,1.32,PG,1680469744
244,Alice Springs,-23.7,133.8833,18.45,68,75,3.6,AU,1680469746
245,Smithers,54.7804,-127.1743,4.6,49,78,1.91,CA,1680469747
246,Macapa,0.0389,-51.0664,28.99,74,40,5.14,BR,1680469504
247,Balykshi,47.0667,51.8667,5.0,87,75,1.0,KZ,1680469748
248,Riverton,40.5219,-111.9391,11.7,68,75,6.69,US,1680469669
249,Vagur,61.4732,-6.8119,6.98,77,100,5.04,FO,1680469749
250,Aswan,24.0934,32.907,22.75,15,44,3.87,EG,1680469750
251,Kachiry,53.0675,76.1036,-1.07,46,10,3.3,KZ,1680469751
252,Seoul,37.5683,126.9778,13.69,65,0,1.03,KR,1680469400
253,Maine-Soroa,13.2114,12.0241,27.05,10,33,3.59,NE,1680469751
254,Ukiah,39.1502,-123.2078,13.58,62,75,4.63,US,1680469752
255,Monte Carmelo,-18.7247,-47.4986,23.31,70,69,2.37,BR,1680469752
256,Uige,-7.6087,15.0613,19.07,95,62,0.38,AO,1680469753
257,Elbistan,38.2059,37.1983,9.03,82,100,0.8,TR,1680469753
258,Chara,56.9064,118.2631,-13.0,95,100,1.32,RU,1680469753
259,Fort Nelson,58.8053,-122.7002,-1.7,55,100,2.24,CA,1680469754
260,Taoudenni,22.6783,-3.9836,29.69,6,0,1.5,ML,1680469754
261,Ayan,56.45,138.1667,-9.09,76,100,3.75,RU,1680469755
262,Hutchinson,38.0608,-97.9298,27.63,17,0,6.17,US,1680469573
263,Tocopilla,-22.092,-70.1979,23.57,76,11,2.87,CL,1680469756
264,Victoria,22.2855,114.1577,22.03,91,97,0.89,HK,1680469745
265,Banjar,-8.19,114.9675,24.76,87,100,0.97,ID,1680469756
266,Saskylakh,71.9167,114.0833,-7.97,96,100,2.1,RU,1680469757
267,Dolores,-36.3132,-57.6792,21.77,48,61,1.22,AR,1680469758
268,Felipe Carrillo Puerto,19.5833,-88.05,32.79,37,1,4.06,MX,1680469758
269,Flinders,-34.5833,150.8552,16.77,90,65,1.79,AU,1680469759
270,Havoysund,70.9963,24.6622,-0.87,81,99,6.29,NO,1680469759
271,Thompson,55.7435,-97.8558,-10.64,79,100,5.09,CA,1680469759
272,Logrono,42.4667,-2.45,8.72,57,75,2.57,ES,1680469760
273,Richards Bay,-28.783,32.0377,23.0,82,37,6.63,ZA,1680469760
274,Broken Hill,-31.95,141.4333,11.51,45,90,2.9,AU,1680469760
275,Bengkulu,-3.8004,102.2655,23.54,90,98,2.06,ID,1680469761
276,Pemba,-12.974,40.5178,25.42,86,81,4.45,MZ,1680469761
277,Oum Hadjer,13.2954,19.6966,31.71,11,20,3.34,TD,1680469762
278,Walvis Bay,-22.9575,14.5053,17.58,77,3,5.03,NA,1680469628
279,Bonavista,48.6499,-53.1147,1.82,96,100,6.76,CA,1680469762
280,Hofn,64.2539,-15.2082,4.77,75,100,1.64,IS,1680469763
281,Maragogi,-9.0122,-35.2225,26.32,77,100,3.08,BR,1680469606
282,Birjand,32.8663,59.2211,5.26,33,0,3.09,IR,1680469764
283,Shenjiamen,29.9576,122.298,11.78,90,89,2.95,CN,1680469764
284,Madera,37.1666,-119.8343,18.64,76,48,3.21,US,1680469765
285,Steinheim,51.8707,9.0914,4.57,72,8,4.12,DE,1680469765
286,Nanortalik,60.1432,-45.2371,-0.49,83,100,3.92,GL,1680469766
287,Placido De Castro,-10.3353,-67.1856,27.67,77,100,1.61,BR,1680469766
288,Hachinohe,40.5,141.5,2.8,85,1,1.52,JP,1680469767
289,Fairbanks,64.8378,-147.7164,-0.51,84,100,6.17,US,1680469502
290,Dong Hoi,17.4833,106.6,24.46,82,74,2.66,VN,1680469768
291,Xining,36.6167,101.7667,-1.26,77,100,1.8,CN,1680469769
292,San Jose De Ocoa,18.55,-70.5,28.48,44,0,2.88,DO,1680469769
293,Provins,48.5833,3.1667,6.62,87,100,5.18,FR,1680469770
294,Atambua,-9.1061,124.8925,22.73,88,51,0.99,ID,1680469771
295,Waynesboro,38.0685,-78.8895,15.5,41,0,2.57,US,1680469772
296,Mahebourg,-20.4081,57.7,26.25,81,77,4.17,MU,1680469772
297,Sao Filipe,14.8961,-24.4956,25.37,58,0,2.75,CV,1680469772
298,Jabinyanah,35.035,10.9081,12.39,62,3,6.93,TN,1680469773
299,Vestmannaeyjar,63.4427,-20.2734,5.19,91,100,9.57,IS,1680469773
300,Huarmey,-10.0681,-78.1522,26.53,76,57,3.18,PE,1680469774
301,Avera,33.194,-82.5271,24.75,31,78,2.91,US,1680469775
302,Palmer,42.1584,-72.3287,8.92,22,0,4.63,US,1680469775
303,Kafue,-15.7691,28.1814,17.18,90,13,1.78,ZM,1680469775
304,Kontagora,10.3999,5.4695,30.03,16,7,1.36,NG,1680469776
305,Lashio,22.9333,97.75,15.06,92,6,0.94,MM,1680469776
306,Cantaura,9.3057,-64.3584,31.53,42,90,5.88,VE,1680469724
307,Makakilo City,21.3469,-158.0858,26.18,73,100,3.6,US,1680469777
308,Necochea,-38.5473,-58.7368,19.01,63,100,2.93,AR,1680469777
309,Chakradharpur,22.7,85.6333,23.98,40,22,1.29,IN,1680469777
310,Kavieng,-2.5744,150.7967,27.69,79,100,5.53,PG,1680469778
311,Bredasdorp,-34.5322,20.0403,17.99,92,2,2.69,ZA,1680469779
312,Inuvik,68.3499,-133.7218,-8.52,52,75,2.57,CA,1680469585
313,Waingapu,-9.6567,120.2641,25.11,83,100,1.48,ID,1680469779
314,Chimbote,-9.0853,-78.5783,26.98,73,47,4.24,PE,1680469780
315,Paramonga,-10.6667,-77.8333,26.19,75,59,3.24,PE,1680469781
316,Kaitangata,-46.2817,169.8464,8.69,80,52,2.49,NZ,1680469781
317,Marawi,7.9986,124.2928,20.24,94,90,0.56,PH,1680469781
318,Alindao,5.0267,21.2088,29.54,37,99,1.24,CF,1680469782
319,Hambantota,6.1241,81.1185,24.71,86,2,1.96,LK,1680469782
320,Odweyne,9.4092,45.064,22.18,75,100,3.01,SO,1680469783
321,Buala,-8.145,159.5921,27.03,79,100,2.82,SB,1680469783
322,Dudinka,69.4058,86.1778,-11.32,95,100,5.1,RU,1680469783
323,Pacifica,37.6138,-122.4869,16.07,66,75,8.75,US,1680469783
324,Nanakuli,21.3906,-158.1547,26.97,69,100,1.54,US,1680469783
325,Mitsamiouli,-11.3847,43.2844,26.97,80,100,1.39,KM,1680469784
326,Geraldton,-28.7667,114.6,17.23,94,5,3.09,AU,1680469784
327,Siguiri,11.6667,-9.5,30.81,11,2,0.41,GN,1680469784
328,Viedma,-40.8135,-62.9967,19.1,56,100,6.18,AR,1680469784
329,Aykhal,66.0,111.5,-7.92,88,100,12.45,RU,1680469784
330,Bilibino,68.0546,166.4372,-24.5,98,98,0.76,RU,1680469785
331,Kjollefjord,70.9457,27.3465,-0.97,74,40,5.14,NO,1680469785
332,Shumskiy,54.8318,99.1328,-13.42,92,13,1.56,RU,1680469785
333,San Jose De Guanipa,8.8872,-64.1651,31.06,44,64,6.72,VE,1680469785
334,Pemangkat,1.1667,108.9667,25.23,84,100,1.08,ID,1680469786
335,Macusani,-14.0833,-70.4333,7.81,70,89,2.84,PE,1680469786
336,Dongsheng,39.8161,109.9776,-0.77,98,100,9.35,CN,1680469786
337,Biltine,14.5333,20.9167,29.1,12,16,2.62,TD,1680469786
338,Hervey Bay,-25.2986,152.8535,21.07,81,38,4.68,AU,1680469786
339,Kamyaran,34.7956,46.9355,1.61,87,12,0.82,IR,1680469786
340,Galesong,-5.3166,119.3661,23.01,83,100,3.31,ID,1680469787
341,Buraydah,26.326,43.975,17.01,19,0,4.26,SA,1680469787
342,Kalmunai,7.4167,81.8167,24.95,87,7,2.24,LK,1680469788
343,Fuling,29.7022,107.3919,18.12,93,25,1.06,CN,1680469788
344,Aripuana,-9.1667,-60.6333,26.07,83,96,1.33,BR,1680469509
345,Peruibe,-24.32,-46.9983,22.46,74,98,2.43,BR,1680469726
346,Mersing,2.4312,103.8405,24.11,91,84,0.98,MY,1680469766
347,Porto Novo,6.4965,2.6036,27.8,79,51,3.65,BJ,1680469791
348,Kumi,36.1136,128.336,4.75,87,0,0.98,KR,1680469792
349,Rongcheng,30.634,117.8517,17.21,79,100,1.57,CN,1680469792
350,Lac Du Bonnet,50.2536,-96.0612,4.87,70,100,2.02,CA,1680469509
351,Medina Del Campo,41.3124,-4.9141,9.84,49,71,0.67,ES,1680469792
352,Rosenberg,49.0748,19.3075,3.72,92,81,2.58,SK,1680469793
353,San Quintin,30.4833,-115.95,16.41,67,0,8.13,MX,1680469793
354,Presidencia Roque Saenz Pena,-26.7852,-60.4388,33.26,35,17,3.54,AR,1680469793
355,Aksarka,66.5606,67.7975,-9.44,84,28,5.43,RU,1680469794
356,Strezhevoy,60.7333,77.5889,1.8,96,100,5.03,RU,1680469794
357,Valley City,46.9233,-98.0032,3.29,87,0,6.69,US,1680469794
358,Korla,41.7597,86.1469,3.09,23,0,9.44,CN,1680469794
359,Samandag,36.0842,35.9771,12.29,89,55,1.62,TR,1680469794
360,Kindu,-2.95,25.95,21.79,89,83,0.92,CD,1680469795
361,Mount Isa,-20.7333,139.5,13.87,72,74,0.0,AU,1680469795
362,Jumla,29.2747,82.1838,4.74,84,56,1.07,NP,1680469795
363,Ambato,-1.2491,-78.6168,19.35,64,77,3.68,EC,1680469796
364,Clarence Town,-32.5833,151.7833,17.7,95,56,0.37,AU,1680469796
365,Dutlwe,-23.9833,23.9,22.96,41,32,3.85,BW,1680469796
366,Yinchuan,38.4681,106.2731,4.53,30,98,5.25,CN,1680469796
367,Namatanai,-3.6667,152.4333,26.79,77,71,2.8,PG,1680469796
368,Tilichiki,60.4667,166.1,-3.83,96,100,0.99,RU,1680469797
369,Lata,40.1629,-8.3327,13.84,78,99,0.67,PT,1680469798
370,San Rafael,-34.6177,-68.3301,25.89,37,0,3.83,AR,1680469798
371,Pringsewu,-5.3582,104.9744,22.15,95,100,1.6,ID,1680469799
372,Kahramanmaras,38.0,37.0,7.06,92,100,1.98,TR,1680469799
373,Acajutla,13.5928,-89.8275,30.17,54,100,3.99,SV,1680469799
374,Chiredzi,-21.05,31.6667,19.86,84,43,2.22,ZW,1680469799
375,Esperance,-33.8667,121.9,17.88,78,55,3.41,AU,1680469799
376,Shahr-E Babak,30.1165,55.1186,9.64,17,0,3.1,IR,1680469799
377,Port Moresby,-9.4431,147.1797,24.63,88,99,2.17,PG,1680469800
378,Katobu,-4.9408,122.5276,23.46,95,100,1.1,ID,1680469800
379,Shu,43.5983,73.7614,3.84,23,23,4.22,KZ,1680469802
380,Inta,66.0317,60.1659,-7.37,93,94,4.23,RU,1680469802
381,Manado,1.487,124.8455,23.43,100,40,1.03,ID,1680469803
382,Agirish,61.9247,63.0231,0.35,94,97,1.39,RU,1680469805
383,Poplar Bluff,36.757,-90.3929,21.88,38,0,5.66,US,1680469807
384,Talas,38.6908,35.5538,9.37,76,75,2.06,TR,1680469808
385,Beringovskiy,63.05,179.3167,-8.35,91,99,3.14,RU,1680469808
386,Belmonte,-15.8631,-38.8828,25.22,78,14,1.65,BR,1680469809
387,Arlit,18.7369,7.3853,26.04,5,100,5.11,NE,1680469809
388,Mayumba,-3.432,10.6554,27.39,82,77,6.17,GA,1680469810
389,Ramos Arizpe,25.55,-100.9667,32.2,20,75,4.12,MX,1680469811
390,Buchanan,5.8808,-10.0467,26.63,86,17,2.77,LR,1680469811
391,San Pedro,14.35,121.0167,26.84,80,20,1.54,PH,1680469812
392,Tezu,27.9167,96.1667,16.02,93,100,2.2,IN,1680469813
393,Port-Gentil,-0.7193,8.7815,27.98,78,75,4.63,GA,1680469813
394,Ipixuna,-1.7625,-48.8043,23.99,93,93,4.35,BR,1680469815
395,Todos Santos,23.45,-110.2167,24.13,69,100,6.3,MX,1680469816
396,Palu,-0.8917,119.8707,23.86,91,100,0.86,ID,1680469817
397,Rundu,-17.9333,19.7667,21.81,65,93,1.22,NA,1680469818
398,Kyshtovka,56.555,76.6271,-6.18,82,20,3.52,RU,1680469818
399,Paso De Carrasco,-34.8603,-56.0522,21.08,54,88,1.37,UY,1680469706
400,Kununurra,-15.7667,128.7333,22.99,94,41,2.57,AU,1680469536
401,Onega,63.9061,38.1404,-5.4,90,10,4.2,RU,1680469819
402,Monteagudo,-19.8167,-63.9833,27.38,49,11,3.12,BO,1680469820
403,Chulman,56.8479,124.9104,-14.95,96,100,1.61,RU,1680469820
404,Christchurch,-43.5333,172.6333,13.51,86,40,4.63,NZ,1680469626
405,Lakatoro,-16.0999,167.4164,28.46,76,11,3.18,VU,1680469821
406,Kayes,14.0,-11.0,34.19,6,92,1.85,ML,1680469822
407,Kiruna,67.8557,20.2251,-10.49,67,100,3.6,SE,1680469822
408,Nakhon Thai,17.1006,100.8374,26.95,52,100,0.61,TH,1680469822
409,Wewak,-3.5534,143.6268,25.57,84,100,1.75,PG,1680469823
410,Vila Franca Do Campo,37.7167,-25.4333,15.23,66,40,6.49,PT,1680469547
411,Puerto Escondido,15.85,-97.0667,31.46,66,0,4.12,MX,1680469823
412,Praia,14.9215,-23.5087,25.3,69,0,5.14,CV,1680469700
413,Cabo San Lucas,22.8909,-109.9124,29.23,53,75,4.63,MX,1680469756
414,Bonthe,7.5264,-12.505,26.9,84,2,2.81,SL,1680469824
415,Kyabe,9.4515,18.9449,31.75,16,4,1.33,TD,1680469825
416,Izhma,65.0083,53.9113,-13.65,99,95,1.05,RU,1680469825
417,Bay Roberts,47.5999,-53.2648,5.92,87,100,0.45,CA,1680469826
418,Kotaparh,19.15,82.35,23.06,49,48,2.51,IN,1680469569
419,Faya,18.3851,42.4509,15.29,77,37,0.59,SA,1680469827
420,Khorramshahr,30.4397,48.1664,15.98,48,0,2.06,IR,1680469827
421,Neiafu,-18.65,-173.9833,28.38,69,20,4.63,TO,1680469828
422,Srednekolymsk,67.45,153.6833,-26.52,96,34,1.44,RU,1680469828
423,Ruteng,-8.6136,120.4721,16.09,96,99,1.11,ID,1680469829
424,Zhezkazgan,47.8043,67.7144,3.47,35,49,7.65,KZ,1680469830
425,Tarata,-17.6167,-66.0167,25.68,26,2,2.29,BO,1680469830
426,Constitucion,-35.3333,-72.4167,18.32,60,6,7.54,CL,1680469831
427,Caraquet,47.7941,-64.9386,-4.3,72,7,11.28,CA,1680469831
428,Ciudad Real,39.0,-4.0,12.73,36,14,3.17,ES,1680469832
429,Monrovia,6.3005,-10.7969,27.31,82,78,2.61,LR,1680469832
430,Karratha,-20.7377,116.8463,27.73,76,71,3.4,AU,1680469833
431,Kahone,14.15,-16.0333,23.7,53,0,5.21,SN,1680469833
432,Kruisfontein,-34.0033,24.7314,17.71,60,100,4.14,ZA,1680469834
433,Akdepe,42.0551,59.3788,9.71,48,61,2.78,TM,1680469834
434,Mettet,50.3212,4.6623,4.37,70,75,5.14,BE,1680469835
435,Mana,5.6592,-53.7767,25.88,79,95,4.58,GF,1680469835
436,Hami,42.8,93.45,2.64,24,95,1.77,CN,1680469836
437,Bethlehem,-1.4558,-48.5044,24.02,94,75,1.03,BR,1680469836
438,Merauke,-8.4667,140.3333,26.0,85,100,2.3,ID,1680469837
439,Chongwe,-15.3292,28.682,16.68,97,10,1.88,ZM,1680469837
440,Whitehorse,60.7161,-135.0538,-1.06,52,95,1.34,CA,1680469734
441,Macau,22.2006,113.5461,21.89,88,40,5.14,MO,1680469838
442,Masty,53.4122,24.5387,0.69,73,100,7.23,BY,1680469838
443,Tromso,69.6496,18.957,-1.99,50,0,7.2,NO,1680469798
444,Batticaloa,7.7102,81.6924,24.04,92,6,2.41,LK,1680469839
445,Raga,8.4596,25.678,26.66,14,32,2.02,SS,1680469841
446,Umm Kaddadah,13.6017,26.6876,22.83,12,80,5.56,SD,1680469842
447,Agadir,30.4202,-9.5982,19.25,66,0,3.01,MA,1680469842
448,Anshan,41.1236,122.99,12.68,30,100,2.16,CN,1680469842
449,Cozumel,20.5083,-86.9458,30.53,61,40,4.12,MX,1680469554
450,Tuyen Quang,21.8233,105.2181,23.38,94,100,0.99,VN,1680469843
451,Nurota,40.5614,65.6886,13.16,59,100,3.03,UZ,1680469843
452,Kimbe,-5.5502,150.1429,24.63,92,81,0.91,PG,1680469843
453,Pijijiapan,15.7011,-93.23,32.94,52,100,3.49,MX,1680469844
454,Bantou,26.2151,117.4893,17.9,98,63,1.09,CN,1680469844
455,Chapais,49.7834,-74.8492,-7.55,77,100,3.42,CA,1680469844
456,Okato,-39.2,173.8833,14.82,63,91,9.99,NZ,1680469844
457,Port Hedland,-20.3167,118.5667,29.16,66,80,5.04,AU,1680469845
458,Jacareacanga,-6.2222,-57.7528,21.89,99,100,2.46,BR,1680469845
459,Bria,6.5423,21.9863,26.3,28,49,1.14,CF,1680469845
460,Bonfim,3.0833,-59.95,31.7,42,99,5.85,BR,1680469845
461,Maneromango,-7.1988,38.7848,21.44,97,97,1.51,TZ,1680469846
462,Bairiki,1.3292,172.9752,29.0,79,75,4.63,KI,1680469846
463,Shahjahanpur,27.8833,79.9167,21.55,54,0,2.49,IN,1680469846
464,Kozulka,50.0351,23.797,3.27,94,100,4.63,UA,1680469846
465,Touros,-5.1989,-35.4608,26.13,79,100,2.88,BR,1680469764
466,Damaturu,11.747,11.9608,27.5,12,100,4.19,NG,1680469846
467,Ifakara,-8.1333,36.6833,22.75,95,78,0.77,TZ,1680469847
468,Belyy Yar,53.6039,91.3903,-9.06,67,100,2.0,RU,1680469847
469,Krasnopavlivka,49.1372,36.3272,8.32,72,100,5.43,UA,1680469847
470,Kryve Ozero,47.9524,30.3493,7.27,94,100,1.57,UA,1680469847
471,Bakel,14.905,-12.4568,32.93,8,0,2.74,SN,1680469847
472,Anchorage,61.2181,-149.9003,1.66,60,0,5.14,US,1680469800
473,Morehead,37.2711,-87.1764,18.77,40,0,4.12,US,1680469721
474,Port Hawkesbury,45.6169,-61.3485,3.28,70,15,8.49,CA,1680469848
475,Takoradi,4.8845,-1.7554,26.65,85,14,1.48,GH,1680469848
476,Tanabe,33.7333,135.3667,12.19,80,100,3.05,JP,1680469848
477,Zhangjiakou,40.81,114.8794,4.89,97,100,5.67,CN,1680469848
478,San Antonio Del Tequendama,4.6189,-74.3539,23.39,74,100,1.02,CO,1680469848
479,Tukrah,32.5341,20.5791,22.98,22,0,11.48,LY,1680469849
480,Soria,41.6667,-2.6667,3.95,68,79,3.25,ES,1680469849
481,Keuruu,62.2667,24.7,-3.9,95,10,2.71,FI,1680469849
482,Raudeberg,61.9875,5.1352,5.53,76,95,7.13,NO,1680469849
483,Bocaiuva,-17.1078,-43.815,27.43,36,100,4.51,BR,1680469850
484,Olinda,-8.0089,-34.8553,28.85,65,40,2.06,BR,1680469801
485,Amapa,1.0,-52.0,24.27,96,86,0.59,BR,1680469722
486,Yumen,40.2833,97.2,0.5,65,3,3.73,CN,1680469850
487,Port Blair,11.6667,92.75,25.84,76,100,2.55,IN,1680469850
488,Guia De Isora,28.2115,-16.7795,20.73,81,0,2.55,ES,1680469673
489,Kirakira,-10.4544,161.9205,28.97,72,100,6.28,SB,1680469851
490,Mawlaik,23.6333,94.4167,19.61,65,0,0.72,MM,1680469851
491,Taltal,-25.4,-70.4833,23.18,76,26,3.07,CL,1680469851
492,Mkushi,-13.6202,29.3939,16.32,98,85,2.16,ZM,1680469851
493,Huilong,31.8111,121.655,12.74,86,97,6.11,CN,1680469851
494,Praya,14.9215,-23.5087,25.3,69,0,5.14,CV,1680469851
495,Vanavara,60.34,102.2797,-7.68,92,100,4.78,RU,1680469852
496,Ternate,0.8,127.4,26.83,82,100,1.26,ID,1680469852
497,Shache,38.4167,77.2406,14.84,21,100,1.47,CN,1680469852
498,Kabansk,52.0486,106.6528,-12.05,82,90,4.52,RU,1680469852
499,Chernyshevskiy,63.0128,112.4714,-10.72,93,100,5.09,RU,1680469853
500,Novosheshminsk,55.0651,51.2338,4.49,79,94,2.68,RU,1680469853
501,Villablino,42.9393,-6.3194,6.43,75,59,1.07,ES,1680469853
502,Niimi,34.9833,133.4667,7.52,92,0,2.21,JP,1680469853
503,Vrangel,42.7297,133.0839,3.65,69,5,2.63,RU,1680469854
504,Jawa,31.8525,35.9393,11.17,71,52,3.09,JO,1680469854
505,Berlevag,70.8578,29.0864,-2.03,74,96,6.69,NO,1680469854
506,Slave Lake,55.2834,-114.769,-0.01,93,100,4.63,CA,1680469854
507,Cabedelo,-6.9811,-34.8339,27.37,79,99,2.09,BR,1680469855
508,Waipawa,-41.4122,175.5153,12.63,90,89,2.96,NZ,1680469855
509,Lagoa,39.05,-27.9833,13.73,56,73,11.08,PT,1680469855
510,Guerrero Negro,27.9769,-114.0611,15.64,76,4,9.01,MX,1680469855
511,Salinas,36.6777,-121.6555,17.48,59,75,6.17,US,1680469700
512,Rabo De Peixe,37.8,-25.5833,14.73,63,20,6.69,PT,1680469855
513,Ostrovnoy,68.0531,39.5131,-7.33,81,100,2.06,RU,1680469856
514,Bud,39.447,-86.1758,15.78,54,10,4.81,US,1680469856
515,Sobolevo,54.4299,31.8996,1.36,97,100,5.0,RU,1680469856
516,Upernavik,72.7868,-56.1549,-26.63,95,52,1.74,GL,1680469804
517,Okha,53.5739,142.9478,-1.67,92,100,1.64,RU,1680469857
518,Linxi,39.7,118.4333,9.4,58,100,3.3,CN,1680469857
519,Launceston,-41.45,147.1667,10.08,93,65,2.57,AU,1680469857
520,Tekeli,44.83,78.8239,0.43,35,0,3.81,KZ,1680469857
521,Salacgriva,57.7536,24.3581,-1.55,81,6,5.83,LV,1680469857
522,Maniitsoq,65.4167,-52.9,-5.12,70,11,2.84,GL,1680469858
523,Daru,-9.0763,143.2092,26.27,81,100,2.27,PG,1680469858
524,Dalton,34.7698,-84.9702,21.77,29,0,3.6,US,1680469859
525,Mogadishu,2.0371,45.3438,28.2,74,100,4.37,SO,1680469859
526,Salto,-31.3833,-57.9667,26.09,44,0,2.06,UY,1680469565
527,Luanda,-8.8368,13.2343,27.34,82,12,4.8,AO,1680469821
528,Skibbereen,51.55,-9.2667,9.5,90,99,4.09,IE,1680469861
529,Lithakia,37.7167,20.8333,12.65,89,100,3.84,GR,1680469863
530,San Carlos De Bariloche,-41.1456,-71.3082,16.86,36,20,7.72,AR,1680469690
531,Opuwo,-18.0607,13.84,21.93,31,8,0.73,NA,1680469864
532,Asfi,32.2994,-9.2372,16.15,88,0,10.05,MA,1680469865
533,Dukat,62.55,155.55,-23.03,100,98,1.32,RU,1680469865
534,Acapulco,16.8634,-99.8901,30.9,62,0,5.66,MX,1680469832
535,Colonia,50.9333,6.95,5.88,63,40,2.57,DE,1680469866
536,Plettenberg Bay,-34.0527,23.3716,18.92,75,75,2.87,ZA,1680469866
537,Phalaborwa,-23.943,31.1411,21.66,71,1,1.58,ZA,1680469867
538,Harindanga,22.0383,88.3214,25.94,75,69,2.87,IN,1680469868
539,Tiarei,-17.5333,-149.3333,31.01,75,97,3.52,PF,1680469869
540,Taganak,6.0833,118.3,27.51,73,73,2.99,PH,1680469869
541,Sambava,-14.2667,50.1667,24.53,90,100,2.15,MG,1680469870
542,Altus,34.6381,-99.334,24.92,46,0,8.75,US,1680469870
543,Sitka,57.0531,-135.33,4.94,75,75,0.0,US,1680469871
544,Manaure,11.7751,-72.4445,30.17,56,61,10.29,CO,1680469872
545,Alofi,-19.0595,-169.9187,26.08,80,75,9.45,NU,1680469872
546,Challapata,-18.9,-66.7667,15.11,39,46,2.22,BO,1680469872
547,Mindelo,16.8901,-24.9804,23.75,73,0,11.83,CV,1680469683
548,Dubrovnik,42.6481,18.0922,14.8,47,0,4.63,HR,1680469677
549,Faro,37.0194,-7.9322,17.76,82,0,1.54,PT,1680469687
550,The Valley,18.217,-63.0578,27.12,74,40,5.14,AI,1680469740
551,Anahuac,27.2333,-100.15,32.96,42,85,1.11,MX,1680469875
552,Castro,-24.7911,-50.0119,19.23,86,81,2.26,BR,1680469875
553,Kita,13.0349,-9.4895,31.03,8,0,1.58,ML,1680469876
554,Ocampo,21.65,-101.5,27.38,15,100,4.12,MX,1680469876
555,Shimoda,34.6667,138.95,10.06,71,98,8.93,JP,1680469877
556,San Jose,37.3394,-121.895,16.94,54,75,11.62,US,1680469676
557,Kidal,18.4411,1.4078,27.64,7,39,3.7,ML,1680469878
558,Ojo Caliente,22.5708,-102.2519,29.93,11,47,4.84,MX,1680469878
559,Ramsi,58.3066,25.5416,-3.23,92,9,3.57,EE,1680469879
560,Qaqortoq,60.7167,-46.0333,-0.83,74,100,2.89,GL,1680469879
561,Talaya,61.3833,152.75,-21.17,100,99,1.36,RU,1680469879
562,Havre-Saint-Pierre,50.2334,-63.5986,0.2,80,100,10.29,CA,1680469880
563,Tumen,42.9661,129.8425,4.33,90,43,0.5,CN,1680469880
564,Popondetta,-8.7537,148.2534,24.01,88,98,1.27,PG,1680469881
565,Javanrud,34.7961,46.5172,2.15,88,8,2.63,IR,1680469881
566,Homer,59.6425,-151.5483,2.93,64,0,6.26,US,1680469854
567,Taree,-31.9,152.4667,16.23,99,82,1.21,AU,1680469882
568,Laguna,38.421,-121.4238,17.81,51,20,6.69,US,1680469712
569,Susurluk,39.9136,28.1578,16.02,78,100,3.83,TR,1680469884
570,Hamilton,39.1834,-84.5333,13.83,54,3,2.24,US,1680469196
571,Milkovo,54.7167,158.6167,-0.32,79,17,1.39,RU,1680469885
