City_ID,City,Lat,Lng,Max Temp,Humidity,Cloudiness,Wind Speed,Country,Date
0,Ati,13.2154,18.3353,43.18,5,48,5.72,TD,1681038281
1,Torbay,47.6666,-52.7314,-3.57,73,27,4.92,CA,1681038282
2,Hobart,-42.8794,147.3294,9.03,76,75,9.77,AU,1681038196
3,Cidreira,-30.1811,-50.2056,21.6,82,96,5.35,BR,1681038117
4,Kapaa,22.0752,-159.319,23.18,85,75,6.69,US,1681038282
5,Yellowknife,62.456,-114.3525,-2.71,93,40,3.09,CA,1681038282
6,Broome,42.2506,-75.833,0.04,62,0,2.06,US,1681038283
7,Krosno,49.6887,21.7706,12.8,69,75,1.58,PL,1681038283
8,Mahebourg,-20.4081,57.7,29.16,70,75,4.63,MU,1681038283
9,Hami,42.8,93.45,16.49,25,100,9.25,CN,1681038283
10,Qaanaaq,77.484,-69.3632,-23.13,54,2,1.54,GL,1681038283
11,Mataura,-46.1927,168.8643,11.38,90,100,2.09,NZ,1681038283
12,Ushuaia,-54.8,-68.3,1.81,87,75,9.77,AR,1681038114
13,Kidal,18.4411,1.4078,34.11,9,96,5.05,ML,1681038284
14,Khatanga,71.9667,102.5,-19.77,94,100,4.07,RU,1681038284
15,Puerto Ayora,-0.7393,-90.3518,24.19,93,4,0.76,EC,1681038284
16,Bluff,-46.6,168.3333,11.56,85,100,4.13,NZ,1681038284
17,Vaini,-21.2,-175.2,25.09,88,20,2.57,TO,1681038284
18,Bonavista,48.6499,-53.1147,-6.16,69,41,8.7,CA,1681038284
19,Lebu,-37.6167,-73.65,11.66,62,74,1.85,CL,1681038142
20,Avera,33.194,-82.5271,6.73,93,100,6.32,US,1681038285
21,Bentiu,9.2333,29.8333,40.97,18,89,2.46,SS,1681038285
22,Geraldton,-28.7667,114.6,20.23,64,0,3.6,AU,1681038285
23,Tigil,57.8,158.6667,-3.53,90,100,2.82,RU,1681038285
24,Klaksvik,62.2266,-6.589,7.51,90,80,13.12,FO,1681038285
25,Cape Town,-33.9258,18.4232,21.73,43,20,5.14,ZA,1681038156
26,Punta Arenas,-53.15,-70.9167,2.06,80,40,7.2,CL,1681038285
27,Busselton,-33.65,115.3333,16.47,78,33,3.47,AU,1681038286
28,Saint Anthony,45.0205,-93.218,11.19,46,0,4.63,US,1681038286
29,Masuguru,-11.3667,38.4167,29.63,65,88,1.77,TZ,1681038286
30,Tiksi,71.6872,128.8694,-15.11,97,100,2.36,RU,1681038286
31,Albany,42.6001,-73.9662,0.17,60,27,1.49,US,1681038002
32,Hithadhoo,-0.6,73.0833,28.14,66,0,0.32,MV,1681038286
33,Tiznit,29.5833,-9.5,26.04,14,77,8.55,MA,1681038286
34,Harper,4.375,-7.7169,29.72,68,94,2.59,LR,1681038287
35,Hervey Bay,-25.2986,152.8535,23.1,46,0,4.12,AU,1681038287
36,Rikitea,-23.1203,-134.9692,24.52,63,12,3.76,PF,1681038287
37,Itarema,-2.9248,-39.9167,25.02,89,99,1.4,BR,1681038287
38,Atuona,-9.8,-139.0333,26.75,73,13,5.11,PF,1681038287
39,Santa Cruz De La Palma,28.6835,-17.7642,21.08,60,40,2.57,ES,1681038287
40,Port Alfred,-33.5906,26.891,18.43,85,100,4.02,ZA,1681038287
41,Orlik,52.5178,99.825,-7.22,67,71,4.07,RU,1681038289
42,Nurota,40.5614,65.6886,25.33,25,100,4.77,UZ,1681038289
43,Barrow,71.2906,-156.7887,-29.99,76,0,1.54,US,1681038242
44,Saint-Philippe,-21.3585,55.7679,28.77,79,99,4.92,RE,1681038290
45,Bang Mun Nak,16.0278,100.3792,32.51,48,77,3.36,TH,1681038290
46,Cabo San Lucas,22.8909,-109.9124,21.4,35,7,3.69,MX,1681038000
47,Creel,27.75,-107.6333,4.26,28,0,1.3,MX,1681038290
48,Atasu,48.6814,71.6433,9.86,24,0,4.81,KZ,1681038290
49,Goundam,16.4145,-3.6708,36.7,8,90,5.91,ML,1681038290
50,Port Lincoln,-34.7333,135.8667,14.63,75,72,3.24,AU,1681038036
51,Sistranda,63.7256,8.834,7.98,75,6,8.78,NO,1681038290
52,Anuppur,23.1,81.6833,31.26,26,73,2.8,IN,1681038291
53,Butaritari,3.0707,172.7902,27.71,80,92,4.35,KI,1681038291
54,Ribeira Grande,38.5167,-28.7,17.22,88,75,4.63,PT,1681038291
55,Igarka,67.4667,86.5833,-15.07,82,98,2.56,RU,1681038291
56,Inhambane,-23.865,35.3833,30.0,62,20,7.2,MZ,1681038291
57,Rio Cuarto,-33.1307,-64.3499,16.48,94,0,4.12,AR,1681038291
58,Bengkulu,-3.8004,102.2655,26.04,85,76,2.13,ID,1681038291
59,Jalu,29.0331,21.5482,26.18,32,49,7.5,LY,1681038292
60,Yulara,-25.2406,130.9889,27.27,26,26,4.45,AU,1681038292
61,New Norfolk,-42.7826,147.0587,8.84,72,51,1.34,AU,1681038292
62,Alice Springs,-23.7,133.8833,23.75,33,17,4.12,AU,1681038208
63,Changli,39.7042,119.1506,14.44,60,52,2.84,CN,1681038292
64,Dongsheng,39.8161,109.9776,11.34,23,56,6.96,CN,1681038293
65,Horasan,40.0458,42.1728,12.29,36,85,3.86,TR,1681038293
66,Cacheu,12.2706,-16.1658,27.05,19,66,4.65,GW,1681038293
67,Peniche,39.3558,-9.3811,21.83,79,58,3.8,PT,1681038293
68,Mayahi,13.9553,7.6712,39.04,8,100,4.3,NE,1681038293
69,Mangrol,21.1167,70.1167,29.7,51,22,8.66,IN,1681038200
70,Cherskiy,68.75,161.3,-24.61,97,9,2.05,RU,1681038293
71,Chokurdakh,70.6333,147.9167,-22.99,89,15,4.5,RU,1681038294
72,Redmond,47.674,-122.1215,10.4,90,100,1.79,US,1681038164
73,Chuy,-33.6971,-53.4616,17.74,81,0,1.1,UY,1681038294
74,Peace River,56.2501,-117.286,4.25,77,0,2.57,CA,1681038047
75,Havoysund,70.9963,24.6622,3.13,80,100,7.12,NO,1681038294
76,Hamilton,39.1834,-84.5333,5.99,72,0,1.54,US,1681038295
77,Mandurah,-32.55,115.7,17.73,75,37,3.05,AU,1681038295
78,Kropotkin,45.4375,40.5756,15.45,55,45,1.9,RU,1681038295
79,Brae,60.3964,-1.353,8.13,78,36,8.84,GB,1681038295
80,Upernavik,72.7868,-56.1549,-19.14,92,100,5.4,GL,1681038295
81,Camargo,27.6667,-105.1667,16.59,38,1,2.77,MX,1681038295
82,Sur,22.5667,59.5289,27.34,67,84,3.33,OM,1681038296
83,Takoradi,4.8845,-1.7554,28.69,71,93,4.11,GH,1681038296
84,Quatre Cocos,-20.2078,57.7625,29.06,75,98,3.61,MU,1681038296
85,Hobyo,5.3505,48.5268,30.96,61,3,6.95,SO,1681038296
86,Vanderhoof,54.0166,-124.0198,-0.4,99,100,1.78,CA,1681038296
87,Hermanus,-34.4187,19.2345,19.89,59,10,4.25,ZA,1681038296
88,Bambous Virieux,-20.3428,57.7575,29.14,70,75,4.63,MU,1681038297
89,Hilo,19.7297,-155.09,23.49,92,70,0.89,US,1681038109
90,Horsham,51.064,-0.3272,16.01,76,20,3.09,GB,1681038297
91,Tasiilaq,65.6145,-37.6368,1.66,94,100,19.66,GL,1681038297
92,Lavrentiya,65.5833,-171.0,-18.7,92,100,3.42,RU,1681038297
93,Qesarya,32.5189,34.9046,29.96,48,100,6.73,IL,1681038297
94,Bolitoc,15.7395,119.8769,26.85,78,64,1.92,PH,1681038297
95,Elko,41.0002,-115.5012,0.91,83,68,1.34,US,1681038297
96,Victoria,22.2855,114.1577,21.78,69,32,3.48,HK,1681038037
97,Bethel,41.3712,-73.414,3.13,64,0,0.0,US,1681038298
98,Lorengau,-2.0226,147.2712,25.72,90,100,6.81,PG,1681038074
99,Pangody,65.85,74.4859,-11.33,91,100,7.35,RU,1681038298
100,Surgut,61.25,73.4167,-2.9,68,0,4.0,RU,1681038298
101,Durazno,-33.4131,-56.5006,14.78,89,2,2.73,UY,1681038298
102,Sitka,57.0531,-135.33,3.94,81,100,5.14,US,1681038298
103,Sept-Iles,50.2001,-66.3821,-7.19,61,0,3.09,CA,1681038299
104,Pombas,17.1503,-25.0201,23.88,65,76,6.28,CV,1681038299
105,Mareeba,-17.0,145.4333,25.4,88,100,1.08,AU,1681038299
106,Salalah,17.0151,54.0924,31.05,62,20,5.66,OM,1681038299
107,Lazaro Cardenas,17.9583,-102.2,22.97,80,27,1.83,MX,1681038299
108,Huarmey,-10.0681,-78.1522,24.53,84,97,4.32,PE,1681038300
109,Necochea,-38.5473,-58.7368,16.87,65,18,6.32,AR,1681038300
110,Los Llanos De Aridane,28.6585,-17.9182,18.86,72,40,2.57,ES,1681038300
111,Macamic,48.7502,-78.9996,-10.64,98,90,2.17,CA,1681038300
112,Tuktoyaktuk,69.4541,-133.0374,-19.01,93,100,4.25,CA,1681038301
113,Ponta Do Sol,32.6667,-17.1,22.06,59,21,2.26,PT,1681038301
114,Rockport,28.0206,-97.0544,18.01,100,100,3.6,US,1681038301
115,Hay River,60.8156,-115.7999,-3.01,93,75,1.03,CA,1681038301
116,Beloha,-25.1667,45.05,32.97,41,0,1.53,MG,1681038301
117,Airai,-8.9266,125.4092,15.92,95,100,1.55,TL,1681038302
118,Palmer,42.1584,-72.3287,1.3,66,0,2.06,US,1681038302
119,Jamestown,42.097,-79.2353,-1.2,80,0,0.0,US,1681038302
120,Ust-Barguzin,53.45,108.9833,-3.92,71,100,2.12,RU,1681038303
121,Altamont,42.2068,-121.7372,4.11,74,100,1.54,US,1681038303
122,Taos,36.4072,-105.5731,3.48,59,0,2.57,US,1681038303
123,Aklavik,68.2191,-135.0107,-20.43,98,100,3.33,CA,1681038303
124,Sanandaj,35.3144,46.9923,21.01,16,40,6.17,IR,1681038304
125,Manokwari,-0.8667,134.0833,26.04,82,100,0.53,ID,1681038304
126,Zhigansk,66.7697,123.3711,-20.67,93,100,2.66,RU,1681038304
127,Provideniya,64.3833,-173.3,-19.68,93,98,2.25,RU,1681038211
128,Seddon,-37.8068,144.8916,13.88,73,75,5.66,AU,1681038305
129,Salym,60.0625,71.4789,3.6,85,100,5.69,RU,1681038305
130,Qinggang,46.6833,126.0833,14.74,18,28,2.66,CN,1681038305
131,Kaliua,-5.0606,31.7936,27.56,55,35,2.48,TZ,1681038306
132,Arraial Do Cabo,-22.9661,-42.0278,22.92,100,100,1.54,BR,1681038306
133,Lima,-12.0432,-77.0282,24.39,84,75,5.66,PE,1681037817
134,Fortuna,40.5982,-124.1573,9.96,77,29,2.24,US,1681038307
135,Grindavik,63.8424,-22.4338,8.26,93,100,14.92,IS,1681038307
136,Norman Wells,65.282,-126.8329,-7.98,93,20,2.06,CA,1681038020
137,Auki,-8.7676,160.7034,25.78,85,96,1.59,SB,1681038307
138,Vostok,46.4856,135.8833,-0.42,68,29,2.07,RU,1681038308
139,Rapar,23.5667,70.6333,34.31,23,11,5.5,IN,1681038308
140,Kloulklubed,7.0419,134.2556,25.28,79,100,2.5,PW,1681038309
141,Linxia,35.6003,103.2064,18.59,11,64,3.73,CN,1681038309
142,Umm Lajj,25.0213,37.2685,30.04,45,59,6.08,SA,1681038225
143,Pasil,17.3833,121.1333,18.48,95,93,1.13,PH,1681038309
144,College,64.8569,-147.8028,-11.9,77,100,2.06,US,1681038286
145,Saldanha,-33.0117,17.9442,21.03,65,0,5.71,ZA,1681038310
146,Vao,-22.6667,167.4833,25.45,76,0,4.66,NC,1681038310
147,Lompoc,34.6391,-120.4579,13.34,88,100,4.02,US,1681038311
148,Bima,-8.4667,118.7167,24.12,95,100,2.12,ID,1681038311
149,Talnakh,69.4865,88.3972,-23.22,93,37,0.3,RU,1681038312
150,Namatanai,-3.6667,152.4333,25.61,89,100,1.88,PG,1681038312
151,Luoyang,34.6836,112.4536,21.4,46,60,2.69,CN,1681038312
152,Luba,3.4568,8.5547,28.94,88,100,5.15,GQ,1681038312
153,Alberton,46.8168,-64.0654,-1.05,81,11,5.53,CA,1681038313
154,Caranavi,-15.8167,-67.55,14.45,98,89,1.11,BO,1681038313
155,Kodiak,57.79,-152.4072,-6.27,53,0,9.26,US,1681038313
156,Tera,14.0078,0.7531,38.66,8,99,6.88,NE,1681038314
157,Zhigalovo,54.8097,105.1578,-2.52,66,100,1.84,RU,1681038314
158,Robertsport,6.7533,-11.3686,28.34,76,98,1.94,LR,1681038314
159,Okhotsk,59.3833,143.3,-14.04,94,12,0.82,RU,1681038112
160,Ripoll,42.2006,2.1903,18.07,33,100,1.34,ES,1681038315
161,Porto Santo,33.072,-16.3415,19.21,55,20,5.66,PT,1681038315
162,Sydney,-33.8679,151.2073,15.73,53,20,5.66,AU,1681037822
163,Nanortalik,60.1432,-45.2371,-2.16,93,76,5.52,GL,1681038316
164,Khorixas,-20.3667,14.9667,30.82,20,28,5.1,NA,1681038316
165,Laguna,38.421,-121.4238,12.19,85,0,0.0,US,1681038316
166,Kawalu,-7.3817,108.2082,23.92,89,98,1.67,ID,1681038317
167,Cananeia,-25.0147,-47.9267,23.41,80,79,2.06,BR,1681038317
168,Dudinka,69.4058,86.1778,-22.99,95,74,1.93,RU,1681038317
169,Ilulissat,69.2167,-51.1,-3.99,80,75,2.06,GL,1681038317
170,Nikolskoye,59.7035,30.7861,11.94,71,55,2.31,RU,1681038317
171,Mehamn,71.0357,27.8492,2.97,81,100,6.17,NO,1681038318
172,Mount Gambier,-37.8333,140.7667,11.98,76,98,3.45,AU,1681038318
173,Bagting,15.5558,121.2451,24.02,87,16,3.24,PH,1681038318
174,Panaba,21.2833,-88.2667,20.44,95,0,1.81,MX,1681038318
175,Acapulco,16.8634,-99.8901,23.53,59,32,1.54,MX,1681038040
176,Kaitangata,-46.2817,169.8464,11.98,93,100,4.68,NZ,1681038319
177,Tocopilla,-22.092,-70.1979,20.24,76,8,1.26,CL,1681038319
178,Labuhan,-6.8844,112.2051,27.03,81,85,3.97,ID,1681038319
179,Avarua,-21.2078,-159.775,25.03,94,75,1.54,CK,1681038228
180,Enderby,52.5878,-1.2062,13.65,71,73,5.39,GB,1681038320
181,Sao Filipe,14.8961,-24.4956,22.14,69,45,5.91,CV,1681038320
182,Te Anau,-45.4167,167.7167,10.38,80,99,0.56,NZ,1681038119
183,Haines Junction,60.7522,-137.5108,-0.03,80,100,1.54,CA,1681038320
184,Castro,-24.7911,-50.0119,16.33,95,97,3.28,BR,1681038321
185,Colares,38.7992,-9.4469,21.66,62,0,6.71,PT,1681038321
186,Port Elizabeth,-33.918,25.5701,17.95,85,75,9.26,ZA,1681038321
187,Inuvik,68.3499,-133.7218,-14.52,66,40,4.12,CA,1681038321
188,Cuzdrioara,47.1667,23.9167,11.58,63,65,1.86,RO,1681038322
189,Umm Kaddadah,13.6017,26.6876,38.86,5,32,3.96,SD,1681038322
190,East London,-33.0153,27.9116,20.52,83,100,7.72,ZA,1681038322
191,Athabasca,54.7169,-113.2854,0.23,86,39,1.85,CA,1681038322
192,Strelka,58.0728,93.0344,-8.14,78,100,4.47,RU,1681038322
193,Bredasdorp,-34.5322,20.0403,19.89,44,4,4.46,ZA,1681038323
194,Atar,20.5169,-13.0499,29.91,15,0,1.55,MR,1681038323
195,Ostrovnoy,68.0531,39.5131,1.07,86,100,7.54,RU,1681038323
196,Semporna,4.4818,118.6112,26.78,80,17,2.75,MY,1681038323
197,Xai-Xai,-25.0519,33.6442,30.34,59,7,1.76,MZ,1681038323
198,Pitimbu,-7.4706,-34.8086,24.33,81,99,4.03,BR,1681038163
199,Cuenca,-2.8833,-78.9833,10.89,94,100,0.94,EC,1681038324
200,Pevek,69.7008,170.3133,-27.35,100,100,0.94,RU,1681038324
201,Kutum,14.2,24.6667,34.92,7,61,3.3,SD,1681038324
202,Magadan,59.5667,150.8,-10.26,79,50,3.14,RU,1681038324
203,Longyearbyen,78.2186,15.6401,1.91,87,100,14.4,SJ,1681038325
204,Jiujiang,29.7333,115.9833,19.51,55,3,3.06,CN,1681038325
205,Kununurra,-15.7667,128.7333,27.99,78,100,5.14,AU,1681038326
206,Eydhafushi,5.1033,73.0708,28.45,70,9,2.7,MV,1681038326
207,San Cristobal,7.7669,-72.225,18.1,82,48,0.91,VE,1681038327
208,Thompson,55.7435,-97.8558,2.09,60,75,2.06,CA,1681038327
209,Bacolod,10.6667,122.95,26.83,75,83,4.47,PH,1681038327
210,Jaque,7.5175,-78.1703,24.64,86,35,1.73,PA,1681038327
211,Maryborough,-25.5333,152.7,18.69,46,0,1.99,AU,1681038327
212,Meadow Lake,34.8014,-106.5436,11.19,33,41,1.66,US,1681038032
213,Celestun,20.8667,-90.4,22.58,76,0,3.76,MX,1681038328
214,Blantyre,-15.785,35.0085,22.34,88,40,3.09,MW,1681038328
215,Srednekolymsk,67.45,153.6833,-14.76,94,19,4.54,RU,1681038328
216,Pisco,-13.7,-76.2167,22.23,88,0,4.63,PE,1681038329
217,Potamia,40.7163,24.7286,14.2,58,100,3.67,GR,1681038329
218,Georgetown,5.4112,100.3354,31.97,62,20,4.12,MY,1681038060
219,Kachiry,53.0675,76.1036,7.96,44,38,4.4,KZ,1681038329
220,Kurbnesh,41.7797,20.0836,7.39,87,100,2.34,AL,1681038329
221,Shasta Lake,40.6804,-122.3708,9.34,78,18,2.1,US,1681038330
222,Jauja,-11.7758,-75.4966,6.64,93,100,1.55,PE,1681038330
223,Aksu,41.1231,80.2644,25.35,6,2,7.6,CN,1681038330
224,Jati,24.3539,68.2671,34.59,20,44,6.91,PK,1681038331
225,Port-Gentil,-0.7193,8.7815,28.98,74,40,5.14,GA,1681038331
226,Alofi,-19.0595,-169.9187,25.94,89,90,3.09,NU,1681038331
227,Cradock,-32.1642,25.6192,24.56,37,89,0.46,ZA,1681038331
228,Port Blair,11.6667,92.75,31.02,70,20,2.06,IN,1681038331
229,Olga,43.7444,135.2892,3.72,75,6,3.23,RU,1681038332
230,Katsuura,35.1333,140.3,12.25,61,1,5.26,JP,1681038333
231,Mirabad,30.4362,61.8383,33.85,10,2,1.37,AF,1681038333
232,Rio Gallegos,-51.6226,-69.2181,1.03,69,0,9.26,AR,1681038333
233,La Ronge,55.1001,-105.2842,0.12,86,40,1.54,CA,1681038334
234,Nhulunbuy,-12.2333,136.7667,26.34,89,75,0.0,AU,1681038334
235,Prince Rupert,54.3161,-130.3201,5.83,91,100,11.32,CA,1681038264
236,Espanola,35.9911,-106.0806,10.19,50,60,0.88,US,1681038335
237,Bilibino,68.0546,166.4372,-25.6,91,14,2.77,RU,1681038140
238,Pangnirtung,66.1451,-65.7125,-25.5,75,7,2.07,CA,1681038336
239,Sinnamary,5.3833,-52.95,26.07,78,80,2.92,GF,1681038337
240,Balikpapan,-1.2675,116.8289,27.55,83,20,2.57,ID,1681038244
241,Monte Escobedo,22.3,-103.5833,7.2,50,3,1.11,MX,1681038337
242,Naze,28.3667,129.4833,14.51,54,39,2.29,JP,1681038039
243,Tabas,33.5959,56.9244,30.12,11,23,4.12,IR,1681038337
244,Oktyabrskoye,43.0645,44.7417,12.08,71,75,0.0,RU,1681038337
245,Pinehurst,35.1954,-79.4695,6.4,94,20,4.63,US,1681038202
246,Kavieng,-2.5744,150.7967,26.99,80,100,3.78,PG,1681038338
247,Caravelas,-17.7125,-39.2481,25.24,83,91,1.12,BR,1681038338
248,Finnsnes,69.2296,17.9811,6.34,100,100,0.68,NO,1681038079
249,Kulhudhuffushi,6.6221,73.07,29.11,68,6,4.04,MV,1681038338
250,Itoman,26.1247,127.6694,19.01,55,20,5.66,JP,1681038338
251,Hofn,64.2539,-15.2082,7.54,92,100,9.2,IS,1681038339
252,Rafaela,-31.2503,-61.4867,17.21,56,0,0.45,AR,1681038339
253,Marawi,7.9986,124.2928,20.81,97,100,1.3,PH,1681038339
254,Krasnyy,54.5678,31.4333,14.57,50,42,1.12,RU,1681038339
255,Astoria,46.1879,-123.8313,9.92,93,100,0.89,US,1681038339
256,Hasaki,35.7333,140.8333,10.68,44,0,4.43,JP,1681038339
257,Tiarei,-17.5333,-149.3333,27.01,79,100,8.36,PF,1681038339
258,Eureka,40.8021,-124.1637,8.34,93,34,2.43,US,1681038339
259,Fare,-16.7,-151.0167,27.54,76,100,7.48,PF,1681038340
260,Amahai,-3.3333,128.9167,26.74,83,15,0.62,ID,1681038340
261,Isiolo,0.3546,37.5822,27.87,44,81,5.27,KE,1681038340
262,Longhua,23.6137,114.1919,19.78,73,40,0.32,CN,1681038341
263,Faanui,-16.4833,-151.75,27.88,75,98,7.89,PF,1681038341
264,Nemuro,43.3236,145.575,1.65,76,6,7.37,JP,1681038240
265,Hirara,24.8,125.2833,19.15,59,20,4.63,JP,1681038341
266,Yekaterinovka,52.0508,44.3451,11.14,33,6,2.7,RU,1681038341
267,Dzhebariki-Khaya,62.2167,135.8,-19.55,99,91,1.26,RU,1681038341
268,Tahe,52.3333,124.7333,-2.07,65,7,2.04,CN,1681038342
269,Mar Del Plata,-38.0023,-57.5575,16.16,92,0,5.14,AR,1681038342
270,Qiyang,26.5911,111.8474,22.75,57,52,1.21,CN,1681038342
271,Santa Maria,-29.6842,-53.8069,16.61,100,75,1.54,BR,1681038342
272,Gongzhuling,43.5008,124.8198,15.61,35,16,9.09,CN,1681038342
273,Luanda,-8.8368,13.2343,31.0,66,40,3.6,AO,1681038223
274,Narsaq,60.9167,-46.05,-0.88,76,59,1.16,GL,1681038343
275,Hambantota,6.1241,81.1185,33.19,66,40,3.09,LK,1681038343
276,Xuddur,4.1213,43.8894,34.12,24,73,6.29,SO,1681038343
277,Makakilo City,21.3469,-158.0858,22.18,81,40,2.57,US,1681038343
278,Namibe,-15.1961,12.1522,27.71,68,100,4.24,AO,1681038344
279,Coamo,18.08,-66.3579,23.62,96,23,2.03,PR,1681038344
280,Dikson,73.5069,80.5464,-18.1,83,100,2.5,RU,1681038344
281,Saint-Joseph,-21.3667,55.6167,28.21,79,99,2.78,RE,1681038344
282,Axim,4.8699,-2.2405,25.78,86,98,4.16,GH,1681038344
283,Saskylakh,71.9167,114.0833,-17.74,98,100,1.48,RU,1681038344
284,Manaure,11.7751,-72.4445,24.54,83,2,2.83,CO,1681038345
285,Sansepolcro,43.5747,12.143,13.84,68,93,3.39,IT,1681038345
286,Byron Bay,-28.65,153.6167,20.24,46,0,6.08,AU,1681038345
287,Maryville,35.7565,-83.9705,7.04,88,20,2.57,US,1681038345
288,Awjilah,29.1081,21.2869,25.56,34,20,7.28,LY,1681038345
289,Mumford,5.2618,-0.759,28.42,74,100,4.83,GH,1681038345
290,Chapais,49.7834,-74.8492,-12.12,95,96,2.7,CA,1681038345
291,Dingle,10.9995,122.6711,25.48,82,94,2.88,PH,1681038346
292,Ajdabiya,30.7554,20.2263,20.3,52,0,8.85,LY,1681038346
293,Adwa,14.1646,38.8955,30.55,18,13,3.7,ET,1681038346
294,Sioux Lookout,50.1001,-91.917,0.04,69,0,3.6,CA,1681038347
295,Mercedes,-34.6515,-59.4307,16.59,79,2,3.17,AR,1681038347
296,Moratuwa,6.773,79.8816,31.01,68,11,4.39,LK,1681038347
297,Kavaratti,10.5669,72.642,28.49,67,8,1.18,IN,1681038347
298,Trairi,-3.2778,-39.2689,25.94,88,91,1.81,BR,1681038331
299,Hurghada,27.2574,33.8129,33.02,22,0,2.57,EG,1681038347
300,Kruisfontein,-34.0033,24.7314,15.49,80,100,5.57,ZA,1681038348
301,Parkes,-33.1333,148.1833,10.5,59,3,2.55,AU,1681038348
302,Naugachhia,25.4,87.1,38.53,12,84,6.22,IN,1681038348
303,Oistins,13.0667,-59.5333,26.05,78,40,8.75,BB,1681038348
304,Carnarvon,-24.8667,113.6333,22.94,63,8,8.1,AU,1681038348
305,Beringovskiy,63.05,179.3167,-18.69,98,29,2.38,RU,1681038348
306,Batagay-Alyta,67.8006,130.4114,-16.61,96,100,0.88,RU,1681038348
307,Lazarev,52.225,141.5131,-6.88,83,3,2.86,RU,1681038348
308,Abong Mbang,3.9833,13.1833,32.64,43,96,1.32,CM,1681038349
309,Bubaque,11.2833,-15.8333,25.73,52,12,4.84,GW,1681038349
310,Touros,-5.1989,-35.4608,27.02,81,98,4.73,BR,1681038346
311,Indramayu,-6.3264,108.32,27.58,77,59,3.0,ID,1681038349
312,Richards Bay,-28.783,32.0377,31.58,51,23,5.57,ZA,1681038349
313,Zaysan,47.4667,84.8667,4.64,31,7,5.63,KZ,1681038349
314,Lubumbashi,-11.6609,27.4794,23.58,79,79,2.19,CD,1681038349
315,Dubbo,-32.25,148.6167,12.07,58,0,3.6,AU,1681038349
316,Sechura,-5.5569,-80.8222,26.21,77,94,3.78,PE,1681038350
317,Vila Franca Do Campo,37.7167,-25.4333,16.23,92,100,3.92,PT,1681038350
318,Luderitz,-26.6481,15.1594,20.88,42,0,12.55,NA,1681038351
319,Bluefields,12.0137,-83.7635,22.91,90,32,2.88,NI,1681038351
320,Sijunjung,-0.6876,100.9537,24.14,94,100,0.33,ID,1681038351
321,Petropavlovka,50.6114,105.3196,-1.67,71,100,3.22,RU,1681038351
322,Keti Bandar,24.1447,67.4497,28.48,44,50,5.76,PK,1681038351
323,Tilichiki,60.4667,166.1,-9.31,93,99,2.95,RU,1681038351
324,Leningradskiy,69.3833,178.4167,-18.09,94,100,8.51,RU,1681038352
325,Kailua,21.4022,-157.7394,22.99,87,81,0.45,US,1681038352
326,Pochutla,15.7432,-96.4661,24.9,62,10,1.25,MX,1681038352
327,Kimberley,-28.7323,24.7623,24.83,53,75,6.17,ZA,1681038352
328,Dahuk,36.8695,42.994,22.3,30,92,4.41,IQ,1681038352
329,Vila Velha,-20.3297,-40.2925,23.97,94,0,0.0,BR,1681038179
330,Kyzyl-Suu,42.3414,78.0056,10.28,51,97,2.03,KG,1681038352
331,Fuerte Olimpo,-21.0415,-57.8738,20.37,80,6,1.58,PY,1681038353
332,Liberal,37.0431,-100.921,13.08,71,75,2.06,US,1681038353
333,Iacobeni,47.4333,25.3167,3.77,79,99,0.68,RO,1681038353
334,Alyangula,-13.8483,136.4192,28.11,72,30,4.83,AU,1681038353
335,Sao Joao Da Barra,-21.6403,-41.0511,24.05,91,99,5.9,BR,1681038353
336,Esperance,-33.8667,121.9,17.99,79,33,5.7,AU,1681038353
337,Pacific Grove,36.6177,-121.9166,9.82,91,0,2.06,US,1681038261
338,Guerrero Negro,27.9769,-114.0611,13.09,93,13,4.52,MX,1681038354
339,Sabang,5.8933,95.3214,28.66,73,93,7.12,ID,1681038354
340,Vaitape,-16.5167,-151.75,27.9,75,97,7.91,PF,1681038354
341,Ponca City,36.707,-97.0856,9.41,55,54,3.53,US,1681038098
342,Waingapu,-9.6567,120.2641,25.52,82,100,3.37,ID,1681038354
343,Jumla,29.2747,82.1838,14.91,32,100,2.77,NP,1681038354
344,Chambar,25.2931,68.812,37.96,11,80,5.09,PK,1681038354
345,Lubao,14.9167,120.55,30.04,62,99,4.27,PH,1681038354
346,Parabel,58.6978,81.4825,-7.35,66,55,2.35,RU,1681038355
347,Makungu,-8.7333,35.2833,24.08,69,71,3.16,TZ,1681038355
348,Santo Antonio Do Ica,-3.1022,-67.9397,22.1,99,100,0.85,BR,1681038355
349,Severo-Kurilsk,50.6789,156.125,2.13,98,100,5.45,RU,1681038355
350,Macomb,40.4592,-90.6718,8.15,63,0,2.24,US,1681038356
351,Padang,-0.9492,100.3543,28.03,82,100,1.12,ID,1681038356
352,Dunedin,-45.8742,170.5036,13.71,94,100,7.21,NZ,1681038155
353,Mayo,38.8876,-76.5119,4.99,86,0,1.54,US,1681038356
354,Bondoukou,8.0333,-2.8,32.94,45,100,1.68,CI,1681038356
355,Kalabo,-14.97,22.6814,29.48,34,96,2.73,ZM,1681038356
356,Pamanukan,-6.2842,107.8106,27.0,79,65,3.56,ID,1681038356
357,Samarai,-10.6167,150.6667,28.1,75,56,1.74,PG,1681038356
358,Tevriz,57.509,72.4042,5.17,67,90,3.24,RU,1681038357
359,Evensk,61.95,159.2333,-11.88,78,1,5.7,RU,1681038357
360,Trinidad,-14.8333,-64.9,22.99,88,20,2.06,BO,1681038357
361,Bud,39.447,-86.1758,6.19,59,2,3.01,US,1681038357
362,Talaya,61.3833,152.75,-20.83,96,2,1.4,RU,1681038358
363,Hokitika,-42.7167,170.9667,15.02,85,100,4.27,NZ,1681038358
364,Truth Or Consequences,33.1284,-107.2528,11.2,25,0,3.6,US,1681038358
365,Tamandare,-8.7597,-35.1047,27.02,78,98,1.98,BR,1681038358
366,Mana,5.6592,-53.7767,26.08,79,75,2.37,GF,1681038359
367,Labrea,-7.2586,-64.7981,21.96,100,100,0.98,BR,1681038351
368,Berbera,10.4396,45.0143,29.96,70,27,5.54,SO,1681038359
369,Ancud,-41.8697,-73.8203,11.57,75,100,2.5,CL,1681038154
370,Ivanava,52.1451,25.5365,12.14,66,99,1.52,BY,1681038360
371,Gazanjyk,39.2446,55.5154,23.43,25,32,10.6,TM,1681038360
372,Changji,44.0167,87.3167,10.44,76,75,6.0,CN,1681038360
373,Ito,34.9667,139.0833,8.71,75,3,2.98,JP,1681038360
374,Grand Gaube,-20.0064,57.6608,29.22,70,100,3.13,MU,1681038360
375,Krasnoselkup,65.7,82.4667,-14.74,79,100,1.95,RU,1681038361
376,Ust-Kuyga,70.0167,135.6,-11.88,89,100,0.93,RU,1681038361
377,Porto Novo,6.4965,2.6036,29.9,72,100,4.61,BJ,1681038361
378,San Giorgio Del Sannio,41.0696,14.8522,7.38,89,100,1.76,IT,1681038362
379,Broken Hill,-31.95,141.4333,15.62,51,0,6.0,AU,1681038362
380,Amontada,-3.3617,-39.8317,24.84,91,96,1.03,BR,1681038362
381,Mucurapo,10.6667,-61.5333,24.51,83,99,2.86,TT,1681038362
382,Wattegama,6.7989,81.4808,31.56,44,62,5.03,LK,1681038363
383,Caconde,-21.5294,-46.6439,18.47,97,100,1.7,BR,1681038363
384,Stepnyak,52.8339,70.7803,7.19,39,32,3.53,KZ,1681038364
385,Santo Domingo,18.5001,-69.9886,21.69,97,5,1.12,DO,1681038182
386,Pangkalanbuun,-2.6833,111.6167,25.72,85,92,1.88,ID,1681038364
387,Gangapur,26.4833,76.7167,35.55,12,41,4.76,IN,1681038365
388,Lakes Entrance,-37.8811,147.981,10.65,79,92,9.4,AU,1681038365
389,Saint George,37.1041,-113.5841,10.53,49,0,2.06,US,1681038366
390,Coquimbo,-29.9533,-71.3436,15.85,94,100,2.06,CL,1681038366
391,Coihaique,-45.5752,-72.0662,10.34,81,20,4.12,CL,1681038150
392,Hatsukaichi,34.35,132.3333,14.97,77,2,1.9,JP,1681038336
393,Isangel,-19.55,169.2667,26.3,85,9,0.98,VU,1681038367
394,Cockburn Town,21.4612,-71.1419,25.17,78,3,7.68,TC,1681038367
395,Povoa De Varzim,41.3834,-8.7636,20.13,82,40,3.6,PT,1681038367
396,Husavik,66.0449,-17.3389,4.65,94,67,4.64,IS,1681038367
397,Morehead,37.2711,-87.1764,4.97,70,0,0.0,US,1681038178
398,Bonfim,3.0833,-59.95,25.48,54,68,3.16,BR,1681038368
399,Puerto Colombia,10.9878,-74.9547,25.05,87,0,4.23,CO,1681038368
400,Zhengjiatun,43.5064,123.5064,15.73,37,22,10.36,CN,1681038368
401,Grand Forks,47.9417,-97.4337,-6.04,93,0,4.63,US,1681038369
402,Lithakia,37.7167,20.8333,17.6,55,40,1.54,GR,1681038369
403,Walvis Bay,-22.9575,14.5053,19.93,56,2,8.66,NA,1681038370
404,Ulladulla,-35.35,150.4667,12.74,59,5,6.28,AU,1681038370
405,Thinadhoo,0.5333,72.9333,28.13,71,20,0.67,MV,1681038370
406,Souillac,-20.5167,57.5167,29.21,70,75,4.63,MU,1681038371
407,Nyurba,63.2842,118.3319,-15.0,89,100,1.88,RU,1681038371
408,Ivaipora,-24.2478,-51.6847,17.32,95,90,2.34,BR,1681038372
409,Lagoa,39.05,-27.9833,15.67,90,100,6.17,PT,1681038372
410,The Valley,18.217,-63.0578,25.61,75,5,8.07,AI,1681038372
411,Manavalakurichi,8.1333,77.3,30.04,65,89,3.6,IN,1681038372
412,Cortez,37.3489,-108.5859,4.83,72,0,3.09,US,1681038373
413,Presidente Epitacio,-21.7633,-52.1156,21.3,93,61,2.22,BR,1681038129
414,Sal Rei,16.1833,-22.9167,24.11,57,40,9.26,CV,1681038373
415,Reitz,-27.8014,28.4273,22.13,41,99,8.13,ZA,1681038373
416,Qasigiannguit,68.8193,-51.1922,-3.86,97,67,1.05,GL,1681038375
417,Ewa Beach,21.3156,-158.0072,22.83,88,70,4.51,US,1681038230
418,Melbourne,28.0836,-80.6081,22.99,90,0,4.12,US,1681038020
419,Tateyama,34.9833,139.8667,13.42,61,0,5.65,JP,1681038375
420,Ulaangom,49.9811,92.0667,1.26,33,75,3.11,MN,1681038376
421,Morant Bay,17.8815,-76.4093,25.79,82,16,2.48,JM,1681038376
422,Komsomolskiy,40.4272,71.7189,22.4,40,91,2.06,UZ,1681038376
423,Rawson,-43.3002,-65.1023,16.12,61,43,3.51,AR,1681038377
424,Tori,58.4825,24.8152,11.95,48,42,2.0,EE,1681038377
425,Okha,53.5739,142.9478,-5.37,79,10,4.0,RU,1681038377
426,Sola,-13.8833,167.55,28.58,73,20,5.53,VU,1681038377
427,Saquisili,-0.8333,-78.6667,10.74,100,75,1.03,EC,1681038378
428,Portland,45.5234,-122.6762,10.54,89,100,3.09,US,1681038122
429,Rodino,52.5,80.25,5.49,50,98,4.46,RU,1681038378
430,Araioses,-2.89,-41.9031,24.04,92,99,1.65,BR,1681038378
431,Nome,64.5011,-165.4064,-21.96,84,100,0.0,US,1681038378
432,Kifri,34.6959,44.9661,27.62,22,100,3.52,IQ,1681038379
433,Jiazi,22.8779,116.067,18.67,64,3,6.14,CN,1681038379
434,Ikalamavony,-21.15,46.5833,27.96,51,16,1.25,MG,1681038380
435,Skibbereen,51.55,-9.2667,11.17,72,100,6.64,IE,1681038380
436,Bayshore Gardens,27.4253,-82.5904,25.01,84,0,2.57,US,1681038380
437,Antofagasta,-23.65,-70.4,16.6,82,11,1.61,CL,1681038381
438,Brokopondo,4.75,-55.1667,24.54,82,71,1.9,SR,1681038381
439,Thetford Mines,46.0913,-71.3013,-8.03,100,93,1.17,CA,1681038381
440,Ust-Ordynskiy,52.805,104.7508,-2.0,73,100,3.38,RU,1681038383
441,Champerico,14.3,-91.9167,27.02,70,61,3.28,GT,1681038383
442,Krasnaya Gora,52.9995,31.6023,15.48,40,73,2.87,RU,1681038384
443,Barsovo,61.1667,73.1667,-2.93,99,100,6.3,RU,1681038385
444,Umba,66.6871,34.3429,0.66,99,98,3.09,RU,1681038385
445,Iqaluit,63.7506,-68.5145,-27.15,76,20,5.66,CA,1681038385
446,Kayanga,-1.5303,31.1511,22.78,63,97,1.56,TZ,1681038386
447,Dalbandin,28.8947,64.4101,30.55,14,58,3.19,PK,1681038386
448,Tahta,26.7693,31.5021,38.64,7,14,4.08,EG,1681038386
449,Kokopo,-4.352,152.2633,25.41,83,98,0.63,PG,1681038387
450,Pangai,-19.8,-174.35,26.97,79,12,6.28,TO,1681038387
451,Surt,31.2089,16.5887,16.36,60,87,5.46,LY,1681038387
452,Shubarshi,48.5872,57.1869,13.91,35,40,4.6,KZ,1681038387
453,Flin Flon,54.7682,-101.865,-0.09,99,100,2.46,CA,1681038388
454,Hauge,58.3436,6.2812,4.68,92,100,4.56,NO,1681038388
455,Bayangol,50.6977,103.4656,-4.28,67,100,2.27,RU,1681038388
456,Sorong,-0.8833,131.25,27.07,81,43,2.58,ID,1681038388
457,Goderich,43.7501,-81.7165,-0.82,93,9,2.57,CA,1681038389
458,Thunder Bay,48.4001,-89.3168,-5.01,93,0,1.54,CA,1681038258
459,Olot,42.181,2.4901,19.74,42,100,0.89,ES,1681038389
460,Huoqiu,32.3394,116.2694,18.3,58,7,1.54,CN,1681038389
461,Kitaibaraki,36.7833,140.75,7.3,54,1,3.74,JP,1681038390
462,Altamira,-3.2033,-52.2064,24.05,100,100,2.57,BR,1681038390
463,Bose,45.4612,8.0137,14.53,57,92,1.58,IT,1681038390
464,Fort Walton Beach,30.4058,-86.6188,11.66,88,100,6.17,US,1681038390
465,Negombo,7.2083,79.8358,31.03,66,20,4.63,LK,1681038391
466,Arvi,20.9833,78.2333,37.27,20,51,4.15,IN,1681038391
467,Merauke,-8.4667,140.3333,25.88,83,100,2.97,ID,1681038392
468,Alexandria,31.2156,29.9553,27.3,54,75,3.09,EG,1681038392
469,Spisska Nova Ves,48.9446,20.5615,9.39,68,91,1.16,SK,1681038231
470,Gogrial,8.5332,28.1004,40.88,17,66,2.45,SS,1681038392
471,Poum,-20.2333,164.0167,26.3,71,4,2.45,NC,1681038393
472,Roald,62.5833,6.1333,11.61,49,0,1.54,NO,1681038393
473,Khani,41.9563,42.9566,14.76,42,83,1.84,GE,1681038393
474,Sarahan,31.5167,77.8,14.93,43,35,1.43,IN,1681038394
475,Morros,-9.4467,-46.3003,24.91,79,80,0.51,BR,1681038357
476,Saint-Francois,46.4154,3.9054,14.98,67,0,2.06,FR,1681038394
477,Vanimo,-2.6741,141.3028,25.05,87,100,2.36,PG,1681038394
478,Ust-Tsilma,65.441,52.1498,0.31,85,100,4.61,RU,1681038395
479,Rancho Palos Verdes,33.7445,-118.387,13.64,95,30,0.89,US,1681038395
480,Hualmay,-11.0964,-77.6139,23.68,86,87,4.86,PE,1681038395
481,Codrington,-38.2667,141.9667,12.92,73,100,6.6,AU,1681038395
482,Fort Nelson,58.8053,-122.7002,2.77,63,0,2.57,CA,1681038396
483,Lewistown,40.5992,-77.5714,0.91,93,0,0.0,US,1681038396
484,Bibai,43.3247,141.8586,6.88,82,25,1.23,JP,1681038396
485,Mahibadhoo,3.7833,72.9667,28.57,70,11,3.13,MV,1681038268
486,Port Hardy,50.6996,-127.4199,9.0,87,100,6.69,CA,1681038397
487,Slave Lake,55.2834,-114.769,-0.01,80,0,0.0,CA,1681038397
488,Japura,-0.3167,102.35,25.11,92,96,0.96,ID,1681038397
489,Williamsburg,37.2707,-76.7075,8.74,71,100,0.89,US,1681038397
490,Ambilobe,-13.2,49.05,32.53,53,24,1.56,MG,1681038397
491,Asau,46.4333,26.4,9.6,72,94,1.15,RO,1681038398
492,Svetlogorsk,52.6333,29.7333,15.33,47,100,3.53,BY,1681038398
493,Black River,18.0264,-77.8487,22.02,86,0,2.04,JM,1681038398
494,Hun,29.1268,15.9477,21.06,39,1,5.57,LY,1681038398
495,Sisimiut,66.9395,-53.6735,-11.83,89,95,4.41,GL,1681038398
496,Otjiwarongo,-20.4637,16.6477,30.39,23,12,5.3,NA,1681038399
497,Kargasok,59.0556,80.8572,-7.28,64,78,2.63,RU,1681038399
498,Bilma,18.6853,12.9164,37.8,8,2,4.72,NE,1681038399
499,Xichang,27.8964,102.2634,26.12,20,25,4.39,CN,1681038400
500,Voh,-20.9667,164.7,23.06,86,4,1.05,NC,1681038400
501,Loreto,22.2667,-101.9667,11.49,88,4,2.71,MX,1681038400
502,Rovaniemi,66.5,25.7167,7.67,57,0,1.54,FI,1681038400
503,Genhe,50.7833,121.5167,0.55,77,93,2.2,CN,1681038400
504,Tabou,4.423,-7.3528,29.52,68,94,2.4,CI,1681038401
505,Kaeo,-35.1,173.7833,17.96,96,59,5.1,NZ,1681038401
506,Bac Lieu,9.285,105.7244,28.8,69,49,6.76,VN,1681038401
507,Tarrafal,15.2833,-23.7667,24.44,72,77,7.48,CV,1681038401
508,Sakaiminato,35.55,133.2333,12.81,54,1,3.41,JP,1681038401
509,Sri Aman,1.2376,111.4621,31.03,70,20,0.51,MY,1681038319
510,Chitral,35.8462,71.7858,16.84,43,34,0.9,PK,1681038402
511,Hornepayne,49.2138,-84.7705,-6.75,93,38,2.83,CA,1681038402
512,Vidalia,32.2177,-82.4135,7.97,93,100,4.12,US,1681038252
513,Porto Tolle,44.9497,12.3245,12.18,61,93,3.03,IT,1681038402
514,Pak Phanang,8.3511,100.202,29.31,66,45,3.83,TH,1681038402
515,Altay,47.8667,88.1167,1.87,62,14,4.25,CN,1681038402
516,Kamenka,51.3223,42.7678,11.67,41,14,2.57,RU,1681038402
517,Green River,41.5286,-109.4662,-0.78,54,100,0.84,US,1681038403
518,Oranjemund,-28.55,16.4333,17.38,61,0,8.04,NA,1681038403
519,Klyuchi,52.2667,79.1667,7.31,39,38,4.5,RU,1681038403
520,Southampton,50.904,-1.4043,15.59,71,20,4.12,GB,1681038403
521,Greenville,35.6127,-77.3663,8.01,99,100,4.12,US,1681038366
522,Teya,60.3778,92.6267,-6.45,84,100,4.51,RU,1681038404
523,San Patricio,28.017,-97.5169,17.92,95,18,2.5,US,1681038404
524,Puerto Carreno,6.189,-67.4859,25.48,78,98,1.8,CO,1681038405
525,Banda Aceh,5.5577,95.3222,29.17,69,90,2.54,ID,1681038405
526,Aykhal,66.0,111.5,-21.88,96,100,1.49,RU,1681038406
527,San Martin,-33.081,-68.4681,18.4,73,0,2.95,AR,1681038406
528,Bajil,15.0584,43.2851,36.62,34,3,8.16,YE,1681038406
529,Clyde River,70.4692,-68.5914,-24.87,70,0,5.14,CA,1681038193
530,Tatarskaya Pishlya,54.0608,44.8998,11.04,24,0,1.88,RU,1681038406
531,Tromso,69.6496,18.957,4.01,81,75,2.06,NO,1681038128
532,Katobu,-4.9408,122.5276,25.29,85,69,1.75,ID,1681038407
533,Oksfjord,70.2396,22.3479,4.44,98,100,0.78,NO,1681038407
534,Tahoua,14.8888,5.2692,38.95,8,100,7.01,NE,1681038407
535,Batemans Bay,-35.7167,150.1833,11.6,61,3,4.6,AU,1681038194
536,Shimoda,34.6667,138.95,9.5,60,3,2.68,JP,1681038407
537,Mamaku,-38.1,176.0833,15.78,99,100,3.1,NZ,1681038407
538,Meulaboh,4.1363,96.1285,27.38,79,84,2.29,ID,1681038408
539,Faya,18.3851,42.4509,23.29,34,2,5.38,SA,1681038408
540,Mwinilunga,-11.7358,24.4293,22.01,79,100,2.24,ZM,1681038408
541,Bakchar,57.0186,82.0711,-2.69,47,20,3.51,RU,1681038408
542,General Roca,-39.0333,-67.5833,17.11,65,69,2.53,AR,1681038408
543,Matadi,-5.8167,13.45,32.46,63,100,1.36,CD,1681038409
544,Garissa,-0.4536,39.6401,33.37,41,74,2.55,KE,1681038409
545,Russell,32.3502,-85.1999,7.78,87,75,4.12,US,1681038364
546,Moranbah,-22.0016,148.0466,23.18,30,2,2.29,AU,1681038409
547,Ust-Maya,60.4167,134.5333,-17.57,96,99,0.96,RU,1681038409
548,Flinders,-34.5833,150.8552,16.77,58,96,2.68,AU,1681038409
549,Beihai,21.4833,109.1,22.73,82,98,7.17,CN,1681038410
550,Omboue,-1.5746,9.2618,24.96,90,100,1.99,GA,1681038410
551,Zomin,39.9606,68.3958,20.96,41,99,2.3,UZ,1681038410
552,Lensk,60.7253,114.9278,-7.46,95,100,2.07,RU,1681038410
553,Bijie,27.3125,105.2942,15.54,69,96,2.61,CN,1681038410
554,Porbandar,21.6422,69.6093,30.0,45,37,7.99,IN,1681038411
555,Beroroha,-21.6667,45.1667,32.6,46,7,0.47,MG,1681038411
556,Dothan,31.2232,-85.3905,9.27,91,100,4.12,US,1681038411
557,Shingu,33.7333,135.9833,9.74,68,20,2.28,JP,1681038411
558,Chibuto,-24.6867,33.5306,30.48,53,16,2.48,MZ,1681038411
559,Sault Sainte Marie,46.5168,-84.3333,-0.69,100,100,2.57,CA,1681038122
560,Salinas,36.6777,-121.6555,10.05,90,0,2.06,US,1681038412
561,Hof,50.3167,11.9167,11.27,57,0,7.6,DE,1681038412
562,Rudnogorsk,57.2639,103.7519,-4.59,78,100,2.62,RU,1681038412
563,Kroya,-7.6331,109.2461,26.57,80,77,2.59,ID,1681038412
564,Xining,36.6167,101.7667,15.39,8,3,8.43,CN,1681038412
565,Maceio,-9.6658,-35.7353,28.69,83,40,2.57,BR,1681038412
566,Erie,42.7667,-78.6664,-2.16,83,5,1.48,US,1681038412
567,Havre-Saint-Pierre,50.2334,-63.5986,-7.11,61,1,6.4,CA,1681038413
568,Collie,-33.3667,116.15,17.12,70,79,1.9,AU,1681038413
569,Varna,43.2167,27.9167,15.16,54,20,6.17,BG,1681038340
570,Marystown,47.1666,-55.1483,-1.75,100,69,3.13,CA,1681038413
571,Ucluelet,48.9329,-125.5528,8.94,93,100,0.89,CA,1681038413
572,Comodoro Rivadavia,-45.8667,-67.5,15.92,41,0,9.77,AR,1681038192
573,Hosdurga,13.7981,76.2861,35.31,14,2,5.01,IN,1681038414
574,Poya,-21.35,165.15,24.03,83,2,1.07,NC,1681038414
575,Asyut,27.181,31.1837,38.05,7,35,2.17,EG,1681038414
576,Amazar,53.858,120.875,-6.41,89,15,1.37,RU,1681038414
577,Mizan Teferi,6.9833,35.5833,28.53,39,96,1.37,ET,1681038414
578,Ouesso,1.6136,16.0517,34.28,38,83,1.91,CG,1681038133
579,Bull Savanna,17.8868,-77.5902,21.24,87,1,2.92,JM,1681038414
580,Zabaykalsk,49.6333,117.3167,7.85,23,100,8.38,RU,1681038415
581,Verkh-Usugli,52.7,115.1667,-0.01,45,100,2.98,RU,1681038415
582,Astana,51.1801,71.446,8.97,18,0,2.0,KZ,1681038415
583,Tura,25.5198,90.2201,31.73,21,7,2.28,IN,1681038289
584,Turukhansk,65.8167,87.9833,-13.18,75,44,2.34,RU,1681038415
585,Shache,38.4167,77.2406,25.67,9,20,2.68,CN,1681038415
586,Mantua,45.1667,10.7833,16.72,60,96,2.68,IT,1681038415
