City_ID,City,Lat,Lng,Max Temp,Humidity,Cloudiness,Wind Speed,Country,Date
0,Canchungo,12.0672,-16.0333,37.52,15,8,3.16,GW,1680959539
1,Rikitea,-23.1203,-134.9692,24.79,62,100,8.1,PF,1680959539
2,Baherden,38.4362,57.4316,26.32,23,63,3.66,TM,1680959540
3,Perehonivka,48.5355,30.5192,11.88,66,100,2.13,UA,1680959540
4,Mar Del Plata,-38.0023,-57.5575,20.53,80,0,5.66,AR,1680959408
5,Busselton,-33.65,115.3333,14.82,78,51,3.86,AU,1680959540
6,Bethel,41.3712,-73.414,5.42,46,0,4.12,US,1680959541
7,Hofn,64.2539,-15.2082,7.69,91,100,15.42,IS,1680959541
8,Westerland,54.9079,8.3033,14.45,66,0,5.14,DE,1680959541
9,Chulman,56.8479,124.9104,-4.46,96,100,3.53,RU,1680959541
10,Codrington,-38.2667,141.9667,12.55,65,100,8.95,AU,1680959541
11,Tateyama,34.9833,139.8667,10.77,67,98,6.19,JP,1680959541
12,Albany,42.6001,-73.9662,3.1,46,2,0.45,US,1680959542
13,Punta Arenas,-53.15,-70.9167,6.06,70,20,11.32,CL,1680959266
14,Luderitz,-26.6481,15.1594,22.15,51,100,13.69,NA,1680959542
15,Tasiilaq,65.6145,-37.6368,2.09,94,100,15.41,GL,1680959542
16,Portland,45.5234,-122.6762,7.99,87,100,4.12,US,1680959350
17,Ushuaia,-54.8,-68.3,8.81,57,40,8.23,AR,1680959404
18,Tilichiki,60.4667,166.1,-17.65,98,100,2.35,RU,1680959543
19,Ondo,7.1,4.8333,35.84,42,100,1.48,NG,1680959543
20,Hobart,-42.8794,147.3294,8.92,79,75,7.72,AU,1680959544
21,Bambous Virieux,-20.3428,57.7575,27.9,77,67,3.92,MU,1680959544
22,Port Alfred,-33.5906,26.891,18.99,93,89,5.57,ZA,1680959545
23,Puerto Ayora,-0.7393,-90.3518,26.97,88,100,0.92,EC,1680959545
24,Iqaluit,63.7506,-68.5145,-26.54,95,39,5.3,CA,1680959545
25,Roma,43.2128,-75.4557,2.12,54,3,2.71,US,1680959488
26,Ambilobe,-13.2,49.05,29.65,74,94,0.98,MG,1680959546
27,Georgetown,5.4112,100.3354,28.97,84,20,2.24,MY,1680958832
28,Tual,-5.6667,132.75,28.66,74,100,6.01,ID,1680959547
29,Pedana,16.2667,81.1667,33.1,65,0,5.9,IN,1680959547
30,Bilibino,68.0546,166.4372,-28.9,90,4,2.56,RU,1680959548
31,Hilo,19.7297,-155.09,20.14,91,100,2.57,US,1680959548
32,Port Macquarie,-31.4333,152.9167,14.38,67,0,3.5,AU,1680959549
33,Beloha,-25.1667,45.05,29.57,55,84,4.38,MG,1680959549
34,Saint George,37.1041,-113.5841,7.33,53,0,0.0,US,1680959549
35,Anadyr,64.75,177.4833,-26.72,83,20,3.0,RU,1680959550
36,Warrnambool,-38.3833,142.4833,12.41,65,100,9.12,AU,1680959515
37,Balabac,7.9868,117.0645,27.94,75,19,5.65,PH,1680959550
38,Port Elizabeth,-33.918,25.5701,20.73,78,76,8.94,ZA,1680959551
39,Arraial Do Cabo,-22.9661,-42.0278,22.92,94,100,3.09,BR,1680959551
40,Shangrao,28.4532,117.9686,14.08,70,7,1.31,CN,1680959552
41,Airai,-8.9266,125.4092,15.04,95,100,0.43,TL,1680959552
42,New Norfolk,-42.7826,147.0587,8.72,76,34,0.45,AU,1680959552
43,Avarua,-21.2078,-159.775,26.03,89,40,5.14,CK,1680959552
44,Jamestown,42.097,-79.2353,1.77,74,0,3.13,US,1680959553
45,Yamada,39.4667,141.95,6.59,81,100,1.44,JP,1680959553
46,Sumkino,58.1108,68.3244,4.13,55,13,4.39,RU,1680959553
47,Mokhsogollokh,61.4681,128.9203,-10.78,85,100,5.44,RU,1680959554
48,Myaundzha,63.0494,147.1858,-24.98,100,71,1.32,RU,1680959554
49,Narsaq,60.9167,-46.05,1.12,65,30,0.74,GL,1680959554
50,Teknaf,20.8624,92.3058,27.37,69,0,4.54,BD,1680959555
51,Mataura,-46.1927,168.8643,5.83,97,100,1.18,NZ,1680959555
52,Yulara,-25.2406,130.9889,22.89,31,4,5.46,AU,1680959501
53,Constitucion,-35.3333,-72.4167,17.19,39,57,1.52,CL,1680959556
54,Katsuura,35.1333,140.3,9.3,82,100,6.9,JP,1680959269
55,Vestmanna,62.1564,-7.1664,8.51,76,75,9.26,FO,1680959557
56,Coihaique,-45.5752,-72.0662,6.34,81,20,4.63,CL,1680959558
57,Kikwit,-5.041,18.8162,31.13,51,97,1.13,CD,1680959558
58,Ribeira Grande,38.5167,-28.7,16.22,55,40,6.71,PT,1680959558
59,Hermanus,-34.4187,19.2345,16.0,63,100,3.42,ZA,1680959559
60,Basoko,1.2391,23.616,33.57,43,96,2.07,CD,1680959559
61,Dunmore Town,25.5,-76.65,24.2,77,0,6.92,BS,1680959560
62,Torbay,47.6666,-52.7314,1.6,70,7,7.15,CA,1680959561
63,Megion,61.0296,76.1136,-1.99,82,100,8.85,RU,1680959561
64,Hualmay,-11.0964,-77.6139,24.87,78,100,3.25,PE,1680959562
65,Severo-Kurilsk,50.6789,156.125,2.27,99,100,4.13,RU,1680959562
66,Cayenne,4.9333,-52.3333,29.02,61,40,4.12,GF,1680959289
67,Hithadhoo,-0.6,73.0833,28.32,64,59,0.83,MV,1680959562
68,Vikhorevka,56.1201,101.1636,-4.23,89,25,1.0,RU,1680959563
69,Cidreira,-30.1811,-50.2056,21.83,76,85,4.06,BR,1680959476
70,Atbasar,51.8,68.3333,-1.18,49,0,2.81,KZ,1680959563
71,Coxim,-18.5067,-54.76,25.15,80,100,0.8,BR,1680959563
72,Mildura,-34.2,142.15,13.93,76,0,7.12,AU,1680959563
73,Kavieng,-2.5744,150.7967,25.91,87,100,4.99,PG,1680959563
74,East London,-33.0153,27.9116,21.96,77,95,6.46,ZA,1680959563
75,Oranjestad,12.524,-70.027,27.97,82,40,7.2,AW,1680959331
76,Lebu,-37.6167,-73.65,12.7,69,9,2.69,CL,1680959564
77,Gizo,-8.103,156.8419,28.46,74,100,2.13,SB,1680959564
78,Tandil,-37.3217,-59.1332,18.82,57,13,3.61,AR,1680959455
79,Victoria,22.2855,114.1577,21.25,77,76,1.34,HK,1680959538
80,Kizner,56.2749,51.508,8.51,29,55,1.44,RU,1680959564
81,Amazar,53.858,120.875,-4.56,97,100,1.23,RU,1680959565
82,Coracora,-15.0333,-73.7833,12.25,63,10,0.26,PE,1680959565
83,Komsomolskiy,40.4272,71.7189,20.4,37,75,3.09,UZ,1680959565
84,Bathsheba,13.2167,-59.5167,28.34,69,20,9.26,BB,1680959565
85,Cherskiy,68.75,161.3,-28.02,100,66,0.71,RU,1680959565
86,Beeville,28.4008,-97.7483,13.49,94,100,2.06,US,1680959362
87,Vallenar,-28.5708,-70.7581,19.94,65,0,1.25,CL,1680959566
88,Pevek,69.7008,170.3133,-30.16,100,97,2.24,RU,1680959566
89,Pangkalanbuun,-2.6833,111.6167,24.54,91,100,1.45,ID,1680959566
90,Bluff,-46.6,168.3333,10.08,82,100,0.65,NZ,1680959566
91,Kruisfontein,-34.0033,24.7314,19.38,93,100,6.7,ZA,1680959566
92,Koslan,63.4564,48.8989,1.71,99,86,3.47,RU,1680959566
93,Sukpak,51.6667,94.6333,5.25,74,100,1.67,RU,1680959566
94,Chapais,49.7834,-74.8492,-10.12,85,100,3.22,CA,1680959567
95,Sao Paulo De Olivenca,-3.3783,-68.8725,22.57,99,100,1.41,BR,1680959476
96,Najran,17.4924,44.1277,27.45,28,51,5.98,SA,1680959567
97,Conakry,9.538,-13.6773,27.26,62,20,5.14,GN,1680959447
98,Jamshedpur,22.8,86.1833,34.99,14,39,0.72,IN,1680959567
99,Qaanaaq,77.484,-69.3632,-25.47,70,0,1.96,GL,1680959567
100,Dikson,73.5069,80.5464,-28.51,94,11,1.65,RU,1680959567
101,Sorong,-0.8833,131.25,27.94,76,100,4.14,ID,1680959568
102,Lamu,-2.2717,40.902,33.12,63,12,5.55,KE,1680959568
103,Kiama,-34.6833,150.8667,18.54,59,4,4.47,AU,1680959568
104,Yarkovo,57.4028,67.0786,4.81,41,8,3.93,RU,1680959568
105,Butaritari,3.0707,172.7902,27.15,83,35,7.2,KI,1680959569
106,Zhigansk,66.7697,123.3711,-27.26,93,17,1.86,RU,1680959569
107,Srednekolymsk,67.45,153.6833,-21.51,100,97,2.44,RU,1680959569
108,Vila Franca Do Campo,37.7167,-25.4333,15.23,54,63,2.75,PT,1680959569
109,Lewiston,44.1003,-70.2148,2.46,37,0,6.17,US,1680959569
110,Talnakh,69.4865,88.3972,-27.11,96,41,1.22,RU,1680959569
111,Hengshui,37.7322,115.7011,13.71,42,1,4.26,CN,1680959569
112,Kondinskoye,59.6481,67.41,2.9,77,81,5.9,RU,1680959570
113,Thompson,55.7435,-97.8558,-7.48,95,66,4.12,CA,1680959570
114,Provideniya,64.3833,-173.3,-27.42,93,30,2.51,RU,1680959570
115,Kodiak,57.79,-152.4072,-2.27,69,75,4.63,US,1680959570
116,Poya,-21.35,165.15,23.89,79,42,1.14,NC,1680959570
117,Bredasdorp,-34.5322,20.0403,16.38,64,100,3.53,ZA,1680959558
118,Alugan,12.2188,125.4808,25.74,83,15,4.0,PH,1680959570
119,Kapaa,22.0752,-159.319,24.18,85,100,5.66,US,1680959571
120,Cape Town,-33.9258,18.4232,20.06,51,93,5.36,ZA,1680959571
121,Garissa,-0.4536,39.6401,33.51,39,98,2.45,KE,1680959571
122,Atuona,-9.8,-139.0333,27.02,71,76,7.81,PF,1680959571
123,Barrow,71.2906,-156.7887,-31.99,75,0,5.66,US,1680959542
124,Meulaboh,4.1363,96.1285,26.44,82,100,1.91,ID,1680959572
125,Sola,-13.8833,167.55,28.32,72,10,4.2,VU,1680959572
126,Fort-De-France,14.6089,-61.0733,27.97,65,75,7.72,MQ,1680959572
127,Inta,66.0317,60.1659,0.95,99,100,6.96,RU,1680959572
128,Ahipara,-35.1667,173.1667,14.58,90,81,2.05,NZ,1680959572
129,Kaeo,-35.1,173.7833,15.31,91,16,1.44,NZ,1680959572
130,Kaitangata,-46.2817,169.8464,7.3,90,100,3.74,NZ,1680959573
131,Pisco,-13.7,-76.2167,22.79,87,10,0.33,PE,1680959573
132,Tomatlan,19.9333,-105.25,18.09,65,0,1.57,MX,1680959573
133,Palmer,42.1584,-72.3287,4.73,40,20,2.57,US,1680959449
134,Hasaki,35.7333,140.8333,11.22,60,100,5.51,JP,1680959573
135,Ilulissat,69.2167,-51.1,-7.99,79,75,4.12,GL,1680959574
136,Castro,-24.7911,-50.0119,17.52,89,100,2.99,BR,1680959574
137,Zatoka,46.0725,30.4654,10.0,67,35,3.28,UA,1680959574
138,Mastung,29.7994,66.845,20.24,25,63,1.55,PK,1680959574
139,Nova Odesa,47.3078,31.7851,8.65,88,100,4.34,UA,1680959574
140,Bilma,18.6853,12.9164,40.26,5,3,3.88,NE,1680959575
141,Sorland,67.667,12.6934,4.92,83,99,4.37,NO,1680959575
142,Usinsk,65.9939,57.5281,0.77,100,100,5.06,RU,1680959575
143,Sioux Lookout,50.1001,-91.917,-6.72,95,83,2.01,CA,1680959575
144,Okhotsk,59.3833,143.3,-16.03,89,5,2.11,RU,1680959576
145,Sakaiminato,35.55,133.2333,11.26,47,0,5.61,JP,1680959576
146,Vestmannaeyjar,63.4427,-20.2734,7.55,81,75,8.75,IS,1680959576
147,Santa Isabel,-23.3156,-46.2214,22.61,86,100,1.06,BR,1680959576
148,Kamenka,51.3223,42.7678,12.04,40,15,4.19,RU,1680959576
149,Helong,42.5397,128.9972,1.55,36,0,2.34,CN,1680959577
150,Egvekinot,66.3167,-179.1667,-28.36,98,85,1.55,RU,1680959577
151,Paamiut,61.994,-49.6678,-1.36,59,100,2.14,GL,1680959577
152,Kahului,20.8947,-156.47,23.25,79,0,6.17,US,1680959577
153,Kabala,9.5833,-11.55,36.82,24,71,0.57,SL,1680959577
154,Saskylakh,71.9167,114.0833,-18.09,96,100,5.47,RU,1680959577
155,Chokurdakh,70.6333,147.9167,-25.01,100,61,2.44,RU,1680959577
156,Upernavik,72.7868,-56.1549,-25.77,91,100,7.4,GL,1680959578
157,Neiafu,-18.65,-173.9833,27.38,89,40,2.06,TO,1680959578
158,Dunedin,-45.8742,170.5036,10.35,77,100,7.72,NZ,1680959578
159,Beringovskiy,63.05,179.3167,-20.43,99,57,2.22,RU,1680959578
160,Acajutla,13.5928,-89.8275,27.13,59,23,2.11,SV,1680959578
161,Tombouctou,20.0,-3.0,33.23,9,100,2.24,ML,1680959578
162,Petropavlovsk-Kamchatskiy,53.0452,158.6483,-0.67,100,100,1.0,RU,1680959579
163,Kapuskasing,49.4169,-82.4331,-7.36,93,40,2.46,CA,1680959579
164,Mocorito,25.4833,-107.9167,15.53,36,0,0.86,MX,1680959579
165,Gao,16.6362,1.637,39.15,9,14,7.5,ML,1680959579
166,Seoul,37.5683,126.9778,8.78,47,0,4.12,KR,1680959076
167,Fortuna,40.5982,-124.1573,7.18,95,100,2.24,US,1680959579
168,Wagga Wagga,-35.1167,147.3667,13.25,62,91,7.41,AU,1680959579
169,Cepelare,41.7333,24.6833,7.66,74,100,1.89,BG,1680959580
170,Vaini,-21.2,-175.2,26.09,94,75,2.57,TO,1680959580
171,Brae,60.3964,-1.353,7.7,68,3,8.87,GB,1680959580
172,Cervo,43.6702,-7.4101,16.41,58,100,1.38,ES,1680959580
173,Sumenep,-7.0167,113.8667,26.13,82,100,2.78,ID,1680959580
174,Carnarvon,-24.8667,113.6333,22.74,61,0,5.18,AU,1680959331
175,Ratnagiri,16.9833,73.3,29.31,65,6,3.75,IN,1680959581
176,Yellowknife,62.456,-114.3525,0.64,99,100,3.9,CA,1680959581
177,Azul,-36.777,-59.8585,19.84,55,3,3.45,AR,1680959581
178,Zykovo,55.9519,93.1461,-2.59,78,83,1.9,RU,1680959581
179,Cabo San Lucas,22.8909,-109.9124,19.73,52,0,3.09,MX,1680959528
180,Los Llanos De Aridane,28.6585,-17.9182,17.86,71,75,3.6,ES,1680959582
181,Souillac,-20.5167,57.5167,26.86,76,94,4.2,MU,1680959582
182,Umm Kaddadah,13.6017,26.6876,38.31,5,27,5.26,SD,1680959582
183,Rawson,-43.3002,-65.1023,16.4,50,100,8.3,AR,1680959468
184,Fukue,32.6881,128.8419,13.61,46,5,7.84,JP,1680959583
185,Omboue,-1.5746,9.2618,29.07,75,98,4.11,GA,1680959583
186,Mahon,39.8885,4.2658,17.31,72,40,2.57,ES,1680959584
187,Barranca De Upia,4.5696,-72.9668,25.27,75,100,0.47,CO,1680959585
188,Ozinki,51.1786,49.6769,9.58,46,45,7.02,RU,1680959585
189,Lagoa,39.05,-27.9833,13.8,63,100,7.66,PT,1680959586
190,Mayo,38.8876,-76.5119,8.86,53,0,5.36,US,1680959506
191,Sembakung,3.8167,117.25,23.95,96,100,0.92,ID,1680959587
192,Hami,42.8,93.45,15.84,14,90,3.11,CN,1680959588
193,Annau,37.8876,58.516,26.13,24,18,3.29,TM,1680959588
194,Harwich,51.9419,1.2844,12.51,76,100,0.89,GB,1680959589
195,Vagay,57.9375,69.0217,3.93,53,14,4.56,RU,1680959589
196,Fairbanks,64.8378,-147.7164,-18.02,75,75,0.0,US,1680959400
197,Son La,21.3167,103.9,18.62,85,61,2.92,VN,1680959396
198,Faya,18.3851,42.4509,21.29,42,4,4.1,SA,1680959590
199,Asau,46.4333,26.4,8.49,86,100,1.22,RO,1680959591
200,Bela,25.9333,81.9833,31.98,14,71,3.6,IN,1680959591
201,Nikolskoye,59.7035,30.7861,11.94,63,35,0.49,RU,1680959591
202,Vao,-22.6667,167.4833,25.35,77,1,6.48,NC,1680959592
203,Baturaja,-4.1333,104.1667,23.56,97,100,1.12,ID,1680959592
204,Tabou,4.423,-7.3528,31.0,61,79,2.59,CI,1680959592
205,Zlobin,45.2924,14.6541,11.61,36,20,2.57,HR,1680959593
206,Kansanshi,-12.0951,26.4273,23.18,71,99,2.5,ZM,1680959593
207,Mahebourg,-20.4081,57.7,27.92,77,79,4.21,MU,1680959594
208,Kieta,-6.2167,155.6333,26.34,84,100,1.92,PG,1680959594
209,Yumen,40.2833,97.2,13.53,10,6,9.26,CN,1680959595
210,San Cristobal,7.7669,-72.225,21.1,74,100,1.11,VE,1680959595
211,Valdivia,-39.8142,-73.2459,5.05,76,41,1.35,CL,1680959332
212,Catamarca,-28.4696,-65.7852,27.1,52,2,1.34,AR,1680959596
213,Altamira,-3.2033,-52.2064,25.78,82,93,1.35,BR,1680959596
214,Vila Velha,-20.3297,-40.2925,29.97,64,20,5.14,BR,1680959596
215,Adrar,20.5022,-10.0711,31.56,15,100,2.33,MR,1680959597
216,Alice Springs,-23.7,133.8833,21.79,48,100,3.6,AU,1680959597
217,Pandharpur,17.6667,75.3333,33.91,26,74,3.25,IN,1680959597
218,Sistranda,63.7256,8.834,7.98,83,85,1.21,NO,1680959598
219,San Patricio,28.017,-97.5169,14.91,92,100,3.72,US,1680959598
220,Evanston,42.0411,-87.6901,6.65,69,75,3.09,US,1680959598
221,Sisimiut,66.9395,-53.6735,-9.32,82,67,5.98,GL,1680959598
222,Dallas,32.7668,-96.7836,14.2,78,100,2.57,US,1680959265
223,Longyearbyen,78.2186,15.6401,-8.09,73,75,12.35,SJ,1680959599
224,Shahreza,32.0339,51.8794,20.2,11,1,3.1,IR,1680959599
225,Zeya,53.75,127.2667,-3.93,85,91,2.43,RU,1680959599
226,Kichera,55.9375,110.0997,-13.62,81,9,2.44,RU,1680959599
227,Vanimo,-2.6741,141.3028,25.57,90,100,3.11,PG,1680959600
228,Ancud,-41.8697,-73.8203,8.86,80,68,1.67,CL,1680959600
229,Sawtell,-30.3833,153.1,15.01,82,0,1.54,AU,1680959600
230,Houlton,46.1262,-67.8403,-2.93,44,0,5.14,US,1680959601
231,Poum,-20.2333,164.0167,25.18,67,6,2.07,NC,1680959601
232,Auburn,47.3073,-122.2284,9.28,86,100,3.6,US,1680959601
233,Marsh Harbour,26.5412,-77.0636,24.15,75,42,6.49,BS,1680959602
234,Sitka,57.0531,-135.33,6.94,53,100,9.77,US,1680959603
235,Jambusar,22.05,72.8,35.57,19,47,4.17,IN,1680959603
236,Yar-Sale,66.8333,70.8333,-24.57,95,20,2.79,RU,1680959603
237,Pangai,-19.8,-174.35,26.96,82,98,5.25,TO,1680959604
238,Bridgetown,13.1,-59.6167,28.27,69,20,9.26,BB,1680959604
239,Macas,-2.3167,-78.1167,20.27,95,100,0.18,EC,1680959605
240,Belyy,55.8402,32.9419,12.4,43,19,1.47,RU,1680959605
241,Kousseri,12.0769,15.0306,42.14,9,40,2.28,CM,1680959606
242,Iquitos,-3.7481,-73.2472,24.1,86,100,1.81,PE,1680959607
243,Smirnykh,49.75,142.8333,-4.46,91,7,2.88,RU,1680959607
244,Newry,54.1784,-6.3374,11.73,71,99,7.1,GB,1680959608
245,Tiksi,71.6872,128.8694,-17.92,97,32,5.71,RU,1680959608
246,Lavrentiya,65.5833,-171.0,-23.93,93,100,2.75,RU,1680959608
247,Xining,36.6167,101.7667,11.48,14,0,4.18,CN,1680959609
248,Tipperary,52.4733,-8.1558,12.81,75,100,8.54,IE,1680959609
249,Chopovychi,50.8332,28.9533,10.26,82,100,0.85,UA,1680959610
250,Husavik,66.0449,-17.3389,4.12,97,100,3.78,IS,1680959610
251,Kharan,28.5833,65.4167,30.02,16,39,1.56,PK,1680959610
252,Kingman,35.1894,-114.053,13.19,30,0,5.14,US,1680959611
253,Wanning,18.8003,110.3967,23.52,92,100,5.58,CN,1680959611
254,Nanortalik,60.1432,-45.2371,-1.29,84,100,2.66,GL,1680959611
255,Saint-Pierre,-21.3393,55.4781,28.82,70,75,3.6,RE,1680959612
256,Tuatapere,-46.1333,167.6833,7.19,92,98,1.74,NZ,1680959613
257,Russell,32.3502,-85.1999,11.65,87,75,4.12,US,1680959614
258,Shenjiamen,29.9576,122.298,11.24,58,0,3.2,CN,1680959614
259,Kandrian,-6.2167,149.55,25.23,89,100,1.84,PG,1680959614
260,Namatanai,-3.6667,152.4333,25.78,83,100,1.2,PG,1680959617
261,Khatanga,71.9667,102.5,-21.5,96,98,4.43,RU,1680959396
262,Klaksvik,62.2266,-6.589,9.51,92,98,12.79,FO,1680959617
263,Chuy,-33.6971,-53.4616,21.62,63,5,1.92,UY,1680959617
264,Cabedelo,-6.9811,-34.8339,29.37,72,83,3.76,BR,1680959618
265,Biscarrosse,44.3945,-1.1672,20.97,19,0,4.63,FR,1680959404
266,Tessalit,20.1986,1.0114,32.31,8,6,4.91,ML,1680959618
267,Leningradskiy,69.3833,178.4167,-28.5,98,71,3.86,RU,1680959618
268,Cockburn Town,21.4612,-71.1419,24.71,72,89,6.99,TC,1680959618
269,Jumla,29.2747,82.1838,11.37,53,93,1.41,NP,1680959619
270,Paragould,36.0584,-90.4973,8.96,77,83,4.35,US,1680959619
271,Kalmunai,7.4167,81.8167,27.82,68,92,3.15,LK,1680959619
272,Nynashamn,58.9034,17.9479,10.65,63,49,4.63,SE,1680959619
273,Pasco,28.292,-82.4165,24.43,73,100,2.24,US,1680959619
274,Carballo,43.213,-8.691,25.24,52,98,2.02,ES,1680959146
275,Ciocanesti,44.6,25.85,14.79,51,100,1.48,RO,1680959620
276,Cam Ranh,11.9214,109.1591,26.98,83,0,4.63,VN,1680959620
277,Lasa,46.6166,10.7002,12.05,70,100,2.35,IT,1680959620
278,Padang,-0.9492,100.3543,29.03,83,87,1.1,ID,1680959021
279,Araouane,18.9048,-3.5265,34.67,8,39,3.4,ML,1680959620
280,Copiapo,-27.3667,-70.3333,15.83,55,0,0.65,CL,1680959620
281,Dingle,10.9995,122.6711,25.14,81,88,3.18,PH,1680959621
282,Antigonish,45.6169,-61.9986,-1.77,61,100,3.13,CA,1680959621
283,Beyneu,45.3167,55.2,18.08,38,86,7.43,KZ,1680959621
284,Tuktoyaktuk,69.4541,-133.0374,-27.39,100,98,3.24,CA,1680959621
285,Hervey Bay,-25.2986,152.8535,22.35,48,0,4.52,AU,1680959621
286,Bulgan,48.8125,103.5347,7.53,29,100,1.47,MN,1680959622
287,Bongaree,-27.0797,153.1586,19.56,49,0,5.22,AU,1680959622
288,Grand Gaube,-20.0064,57.6608,27.99,70,17,3.58,MU,1680959622
289,Teguise,29.0605,-13.564,18.12,68,40,3.09,ES,1680959622
290,Biak,-0.9131,122.8766,25.34,81,100,2.39,ID,1680959622
291,Lompoc,34.6391,-120.4579,10.51,84,75,1.79,US,1680959427
292,Manakara,-22.1333,48.0167,26.54,75,96,3.12,MG,1680959622
293,Kommunisticheskiy,61.6789,64.4819,1.13,96,100,3.96,RU,1680959622
294,Mahajanga,-15.7167,46.3167,30.95,55,18,2.01,MG,1680959623
295,Barbacoas,1.6715,-78.1398,24.32,87,100,0.86,CO,1680959623
296,Hambantota,6.1241,81.1185,22.19,100,75,2.57,LK,1680959623
297,Big Bend,-26.8167,31.9333,32.95,37,0,2.67,SZ,1680959623
298,Santa Maria,-29.6842,-53.8069,19.38,77,100,3.35,BR,1680959623
299,Oktyabrskoye,43.0645,44.7417,8.08,93,100,5.0,RU,1680959624
300,La Rioja,42.25,-2.5,19.88,24,18,4.28,ES,1680959525
301,Aklavik,68.2191,-135.0107,-24.95,99,100,2.83,CA,1680959624
302,Rocha,-34.4833,-54.3333,20.9,66,4,1.3,UY,1680959624
303,Deputatskiy,69.3,139.9,-26.26,100,100,0.92,RU,1680959624
304,San Joaquin,37.9333,-121.3011,10.82,86,0,2.06,US,1680959624
305,Magan,39.9683,-3.931,25.83,18,17,2.27,ES,1680959625
306,Port Blair,11.6667,92.75,29.02,74,40,1.03,IN,1680959625
307,Aswan,24.0934,32.907,38.16,7,89,7.06,EG,1680959625
308,Kloulklubed,7.0419,134.2556,25.28,77,100,5.35,PW,1680959625
309,Erenhot,43.6475,111.9767,9.73,14,11,4.46,CN,1680959625
310,Cheremushskiy,61.2731,47.2636,6.48,64,16,2.4,RU,1680959625
311,Pundaguitan,6.3711,126.1689,27.0,78,91,4.4,PH,1680959626
312,Clyde River,70.4692,-68.5914,-20.87,77,0,10.8,CA,1680959626
313,Nouadhibou,20.931,-17.0347,22.99,56,0,7.72,MR,1680959626
314,Atar,20.5169,-13.0499,30.18,14,100,0.81,MR,1680959626
315,Esperance,-33.8667,121.9,15.24,86,100,6.57,AU,1680959626
316,Kota Kinabalu,5.9749,116.0724,27.99,83,20,1.03,MY,1680959626
317,Grand Baie,-20.0182,57.5802,28.03,70,15,3.58,MU,1680959627
318,Saint-Philippe,-21.3585,55.7679,28.77,81,100,4.15,RE,1680959627
319,Pacific Grove,36.6177,-121.9166,11.71,93,100,0.0,US,1680959627
320,Kashan,33.9831,51.4364,27.19,7,1,3.11,IR,1680959627
321,Bengkulu,-3.8004,102.2655,25.8,85,65,0.85,ID,1680959581
322,Ponta Do Sol,32.6667,-17.1,20.62,50,66,1.41,PT,1680959627
323,Taicheng,38.731,113.228,8.92,28,6,1.73,CN,1680959628
324,Valley City,46.9233,-98.0032,-5.71,79,0,5.14,US,1680959628
325,Pelotas,-31.7719,-52.3425,27.01,61,75,3.09,BR,1680959628
326,Andenes,69.3143,16.1194,4.99,87,75,5.66,NO,1680959628
327,Moron,-34.6534,-58.6198,22.2,68,0,2.09,AR,1680959628
328,Grindavik,63.8424,-22.4338,7.45,80,100,13.17,IS,1680959629
329,College,64.8569,-147.8028,-18.03,74,75,0.0,US,1680959538
330,Le Port,-20.9373,55.2919,29.0,92,96,1.59,RE,1680959629
331,Hooksett,43.0967,-71.4651,3.85,39,0,7.2,US,1680959629
332,Champerico,14.3,-91.9167,24.3,71,5,1.8,GT,1680959630
333,Hirara,24.8,125.2833,19.0,59,1,10.19,JP,1680959630
334,Bondeno,44.8862,11.4108,17.23,59,40,2.57,IT,1680959630
335,Ulety,51.3572,112.4849,3.2,58,92,2.49,RU,1680959630
336,Guymon,36.6828,-101.4816,2.0,41,0,4.12,US,1680959630
337,Pirapozinho,-22.2753,-51.5,23.02,83,100,2.45,BR,1680959630
338,Bud,39.447,-86.1758,6.75,63,100,4.65,US,1680959631
339,Duncan,34.5023,-97.9578,10.94,69,100,0.0,US,1680959538
340,Shahpur,16.7,76.8333,34.56,22,1,4.14,IN,1680959631
341,Natalio,-26.7167,-55.0833,21.64,76,37,0.32,PY,1680959631
342,Puxinana,-7.1611,-35.9606,26.96,64,55,3.24,BR,1680959381
343,Beihai,21.4833,109.1,19.27,86,100,3.81,CN,1680959632
344,Ostrovnoy,68.0531,39.5131,2.33,88,100,9.92,RU,1680959632
345,Sao Filipe,14.8961,-24.4956,22.5,74,100,4.43,CV,1680959632
346,Nishihara,26.1842,127.7558,17.6,56,40,6.17,JP,1680959632
347,Bandarbeyla,9.4942,50.8122,29.09,61,8,4.81,SO,1680959632
348,Waingapu,-9.6567,120.2641,25.76,82,100,1.73,ID,1680959632
349,Cuajinicuilapa,16.4667,-98.4167,24.53,63,78,0.42,MX,1680959633
350,Camana,-16.6228,-72.7111,23.75,70,7,1.02,PE,1680959633
351,Texarkana,33.4251,-94.0477,13.12,62,100,3.6,US,1680959366
352,Newcastle,-32.9272,151.7765,19.28,60,0,7.2,AU,1680959515
353,Sao Joao Da Barra,-21.6403,-41.0511,29.05,77,73,2.01,BR,1680959630
354,Charters Towers,-20.1,146.2667,25.57,34,6,4.02,AU,1680959633
355,Ondjiva,-17.0667,15.7333,32.04,27,100,1.71,AO,1680959634
356,Touros,-5.1989,-35.4608,29.29,71,99,4.2,BR,1680959345
357,Minab,27.1467,57.0801,28.5,39,93,5.17,IR,1680959634
358,Shakawe,-18.3667,21.85,33.79,20,69,2.65,BW,1680959634
359,Kavaratti,10.5669,72.642,28.26,68,8,0.27,IN,1680959634
360,Gilbues,-9.8317,-45.3439,28.99,51,87,1.56,BR,1680959634
361,Monroe,43.1501,-77.6831,2.79,68,20,2.57,US,1680959634
362,Victor Harbor,-35.5667,138.6167,13.16,72,47,5.69,AU,1680959635
363,Ilhabela,-23.7781,-45.3581,23.2,92,100,1.97,BR,1680959597
364,Santa Marta,11.2408,-74.199,26.13,76,100,1.84,CO,1680959635
365,Charleston,32.7766,-79.9309,12.23,93,100,6.17,US,1680959635
366,Majene,-3.5403,118.9707,26.36,81,56,3.45,ID,1680959635
367,Riyadh,24.6877,46.7219,30.08,21,28,3.63,SA,1680959265
368,Phan Thiet,10.9333,108.1,26.56,84,10,7.17,VN,1680959635
369,Wattegama,6.7989,81.4808,26.23,68,100,2.15,LK,1680959636
370,Te Anau,-45.4167,167.7167,7.33,93,71,0.83,NZ,1680959636
371,Tokur,53.1333,132.9,-9.0,98,45,0.77,RU,1680959636
372,Isangel,-19.55,169.2667,25.88,87,30,1.31,VU,1680959636
373,Sharlyk,52.9167,54.75,6.2,40,0,4.46,RU,1680959636
374,Rehoboth,-23.3167,17.0833,29.17,23,92,9.33,NA,1680959637
375,Danilovka,50.3557,44.1168,11.73,42,14,6.11,RU,1680959637
376,Dalbandin,28.8947,64.4101,25.9,24,99,2.32,PK,1680959637
377,Nizwa,22.9333,57.5333,31.24,19,100,5.67,OM,1680959637
378,Honiara,-9.4333,159.95,26.18,86,66,1.47,SB,1680959637
379,Benguela,-12.5763,13.4055,29.33,73,100,4.79,AO,1680959637
380,Comodoro Rivadavia,-45.8667,-67.5,13.92,30,0,1.03,AR,1680959638
381,Rosetta,31.4044,30.4164,20.21,65,85,10.54,EG,1680959638
382,Topolcani,41.2286,21.4314,11.61,57,92,2.75,MK,1680959638
383,La Union,-5.4,-80.75,26.85,74,71,1.09,PE,1680959638
384,Tura,25.5198,90.2201,24.74,32,92,0.87,IN,1680959638
385,Kazachinskoye,57.6953,93.2761,-4.85,66,100,3.45,RU,1680959638
386,Reconquista,-29.15,-59.65,21.4,54,0,3.22,AR,1680959638
387,San Carlos,9.6612,-68.5827,29.8,47,88,1.57,VE,1680959639
388,Qandala,11.472,49.8728,29.26,66,25,2.72,SO,1680959639
389,Coquimbo,-29.9533,-71.3436,15.85,88,100,1.03,CL,1680959581
390,Villa Carlos Paz,-31.4241,-64.4978,22.44,87,0,0.45,AR,1680959378
391,Vigrestad,58.5667,5.7,11.82,69,100,0.94,NO,1680959639
392,Ucluelet,48.9329,-125.5528,8.38,92,100,3.13,CA,1680959639
393,Thinadhoo,0.5333,72.9333,28.44,68,81,1.25,MV,1680959640
394,Eluru,16.7,81.1,33.05,49,0,5.57,IN,1680959640
395,Dolinsk,47.35,142.8,-1.05,88,98,2.33,RU,1680959640
396,Kaka,37.3482,59.6143,27.05,17,6,3.97,TM,1680959640
397,Kaduqli,11.0167,29.7167,41.01,5,67,2.62,SD,1680959352
398,Taltal,-25.4,-70.4833,19.77,76,4,1.25,CL,1680959641
399,Astana,51.1801,71.446,2.97,23,0,3.0,KZ,1680959587
400,Sao Miguel Do Araguaia,-13.275,-50.1628,24.85,83,99,1.87,BR,1680959641
401,Nisia Floresta,-6.0911,-35.2086,27.45,65,100,4.2,BR,1680959641
402,Matsumoto,36.2333,137.9667,3.99,58,97,0.89,JP,1680959642
403,Kutoarjo,-7.7169,109.9128,25.53,86,100,0.64,ID,1680959642
404,Fairlie,55.756,-4.8556,15.51,66,100,4.04,GB,1680959643
405,Aras,42.5617,-2.356,22.62,17,0,1.03,ES,1680959643
406,Dwarka,22.2394,68.9678,26.82,62,75,6.1,IN,1680959644
407,Ishigaki,24.3448,124.1572,19.45,59,0,10.39,JP,1680959644
408,Houma,29.5958,-90.7195,19.44,93,100,4.12,US,1680959456
409,Nueva Guinea,11.6876,-84.4562,24.05,74,100,3.98,NI,1680959645
410,Mocuba,-16.8392,36.9856,31.14,55,33,2.02,MZ,1680959646
411,Kudahuvadhoo,2.6708,72.8944,28.58,69,87,2.82,MV,1680959646
412,Sigulda,57.1519,24.8647,17.08,48,59,0.45,LV,1680959646
413,Piranhas,-16.4269,-51.8222,24.38,83,100,1.03,BR,1680959646
414,Saldanha,-33.0117,17.9442,20.03,64,23,8.34,ZA,1680959187
415,Soskovo,52.7475,35.3828,12.89,39,96,3.29,RU,1680959647
416,Skjervoy,70.0311,20.9714,6.0,96,100,5.12,NO,1680959648
417,Abu Samrah,35.3029,37.1841,21.93,20,98,1.01,SY,1680959648
418,Santo Antonio Do Ica,-3.1022,-67.9397,24.21,94,94,1.95,BR,1680959648
419,Brockville,44.5834,-75.6826,1.08,49,1,2.28,CA,1680959649
420,Takapau,-40.0333,176.35,10.41,91,100,0.61,NZ,1680959649
421,Fort Nelson,58.8053,-122.7002,-2.11,98,40,0.72,CA,1680959651
422,Seguela,7.9611,-6.6731,30.6,52,100,1.36,CI,1680959651
423,Mudanya,40.3753,28.8822,14.97,55,84,2.72,TR,1680959652
424,Samarai,-10.6167,150.6667,27.31,80,100,2.77,PG,1680959652
425,Coolum Beach,-26.5333,153.1,18.52,76,3,2.27,AU,1680959652
426,Caravelas,-17.7125,-39.2481,30.03,57,30,2.41,BR,1680959653
427,Luba,3.4568,8.5547,28.99,74,100,3.45,GQ,1680959653
428,Lala,7.9745,123.7458,25.1,77,100,1.91,PH,1680959654
429,Micheweni,-4.9667,39.8333,30.34,64,39,2.84,TZ,1680959654
430,Arlit,18.7369,7.3853,38.62,9,0,5.41,NE,1680959654
431,Ayr,55.4627,-4.6339,15.55,47,20,5.66,GB,1680959654
432,Ambulu,-8.345,113.6058,25.15,85,100,1.01,ID,1680959655
433,Broome,42.2506,-75.833,1.86,73,0,3.09,US,1680959655
434,Staryy Nadym,65.6118,72.6842,-18.98,87,9,5.55,RU,1680959655
435,Vagur,61.4732,-6.8119,7.07,90,100,12.24,FO,1680959656
436,Kayankulam,9.1833,76.5,28.36,74,52,3.13,IN,1680959656
437,Maku,39.2911,44.4521,14.03,22,5,9.49,IR,1680959657
438,Alta Floresta,-9.8756,-56.0861,25.15,85,100,1.39,BR,1680959466
439,Stavyshche,50.4,29.5333,9.39,84,99,2.17,UA,1680959657
440,Chingirlau,51.095,54.0814,9.82,40,23,7.06,KZ,1680959658
441,Bagdarin,54.4333,113.6,-5.78,36,1,2.42,RU,1680959658
442,Chancay,-11.5714,-77.2672,24.63,80,59,2.11,PE,1680959658
443,De Aar,-30.6497,24.0123,26.85,19,3,7.08,ZA,1680959659
444,Manggar,-2.8833,108.2667,26.37,81,100,0.38,ID,1680959659
445,Inyonga,-6.7167,32.0667,24.85,69,32,2.7,TZ,1680959660
446,Sobolevo,54.4299,31.8996,12.19,45,100,2.38,RU,1680959660
447,Rio Gallegos,-51.6226,-69.2181,5.03,56,75,8.23,AR,1680959660
448,Garowe,8.4054,48.4845,33.15,29,10,6.35,SO,1680959661
449,Awjilah,29.1081,21.2869,28.31,21,1,6.04,LY,1680959661
450,La Ronge,55.1001,-105.2842,-5.37,93,31,3.56,CA,1680959661
451,Bonthe,7.5264,-12.505,31.86,59,87,5.35,SL,1680959662
452,Zhenjiang,32.2092,119.4342,12.11,56,2,1.79,CN,1680959662
453,Marquette,46.5333,-87.6335,-1.48,76,12,1.74,US,1680959662
454,Merauke,-8.4667,140.3333,27.42,78,100,3.04,ID,1680959662
455,Andrieseni,47.5333,27.2833,10.67,75,92,1.82,RO,1680959663
456,Marfino,55.7028,37.3822,13.98,40,0,5.0,RU,1680959663
457,Cilegon,-6.0174,106.0538,26.31,80,64,4.24,ID,1680959663
458,Baykit,61.67,96.37,-10.83,97,100,1.62,RU,1680959663
459,Iquique,-20.2208,-70.1431,24.02,72,11,1.17,CL,1680959645
460,Valerianovsk,58.76,59.5522,4.55,70,11,4.95,RU,1680959664
461,Nangong,37.3581,115.3744,15.55,37,17,6.39,CN,1680959664
462,Pangody,65.85,74.4859,-21.92,90,6,5.83,RU,1680959665
463,Sabha,27.0377,14.4283,30.27,11,1,7.35,LY,1680959665
464,Saint-Augustin,51.226,-58.6502,-7.76,51,45,8.36,CA,1680959665
465,Chatham,51.3789,0.5279,14.64,54,100,2.24,GB,1680959665
466,Mandera,3.9366,41.867,34.25,37,36,3.41,KE,1680959666
467,Marovoay,-16.1,46.6333,31.01,60,59,1.72,MG,1680959666
468,Matinhos,-25.8175,-48.5428,22.73,95,100,3.83,BR,1680959666
469,Shieli,44.1667,66.75,21.72,21,10,1.33,KZ,1680959667
470,Kango,0.1943,10.0951,30.61,75,100,1.22,GA,1680959667
471,Yilan,24.757,121.753,19.45,99,100,2.35,TW,1680959668
472,Flinders,-34.5833,150.8552,18.43,60,2,4.02,AU,1680959668
473,Tahe,52.3333,124.7333,0.97,61,99,1.84,CN,1680959668
474,Dakar,14.6937,-17.4441,28.49,78,96,6.96,SN,1680959400
475,Griffith,41.5284,-87.4237,6.93,61,40,5.14,US,1680959658
476,Kromy,52.6876,35.7667,13.23,41,98,2.97,RU,1680959669
477,Saint Anthony,45.0205,-93.218,3.94,82,0,4.12,US,1680959669
478,Carutapera,-1.195,-46.02,26.77,86,96,0.68,BR,1680959670
479,Opuwo,-18.0607,13.84,30.5,29,100,1.47,NA,1680959670
480,Sakakah,29.9697,40.2064,31.31,9,4,3.23,SA,1680959670
481,Port-Cartier,50.0334,-66.8654,-6.25,65,6,6.53,CA,1680959671
482,Tarata,-17.6167,-66.0167,12.6,68,100,2.11,BO,1680959672
483,Matara,5.9485,80.5353,26.17,84,100,3.0,LK,1680959673
484,Saravan,39.7196,45.6483,7.4,55,84,6.18,AM,1680959673
485,Zanjan,36.6736,48.4787,16.93,24,31,14.24,IR,1680959673
486,Lima,-12.0432,-77.0282,24.94,79,20,3.09,PE,1680959216
487,Nome,64.5011,-165.4064,-32.96,75,0,0.0,US,1680959676
488,Monkey Bay,-14.0728,34.9201,26.07,66,67,0.21,MW,1680959676
489,Havelock,34.8791,-76.9013,9.4,92,100,9.77,US,1680959506
490,Euclides Da Cunha,-10.5075,-39.0158,29.64,51,58,3.98,BR,1680959677
491,Huarmey,-10.0681,-78.1522,25.36,80,100,2.76,PE,1680959678
492,Dodge City,37.7528,-100.0171,6.8,41,0,4.12,US,1680959678
493,Tikapur,28.5,81.1333,28.82,11,0,2.54,NP,1680959678
494,Lexington,37.9887,-84.4777,7.0,56,0,7.72,US,1680958949
495,Eyl,7.9803,49.8164,30.03,57,9,6.46,SO,1680959678
496,Syrskoye,52.5744,39.4966,13.88,38,21,3.85,RU,1680959679
497,Bekovo,52.4663,43.712,11.3,39,63,4.6,RU,1680959679
498,Gornopravdinsk,60.05,69.9,1.48,91,100,4.86,RU,1680959679
499,Treinta Y Tres,-33.2333,-54.3833,19.64,69,0,1.94,UY,1680959679
500,Diamantino,-14.4086,-56.4461,24.26,88,100,2.0,BR,1680959679
501,Rajsamand,25.0667,73.8833,32.73,13,75,2.24,IN,1680959679
502,Mikhaylovskoye,51.8239,79.7172,-1.14,31,0,3.2,RU,1680959680
503,Oranjemund,-28.55,16.4333,17.67,61,1,10.76,NA,1680959680
504,Dezful,32.3811,48.4058,31.14,13,0,6.68,IR,1680959680
505,Antofagasta,-23.65,-70.4,21.6,77,27,0.93,CL,1680959680
506,Acari,-15.4311,-74.6158,24.36,74,8,1.35,PE,1680959680
507,Dukat,62.55,155.55,-21.64,99,6,1.21,RU,1680959680
508,Rudsar,37.1376,50.288,22.33,52,93,3.77,IR,1680959681
509,Ust-Maya,60.4167,134.5333,-2.44,80,100,6.07,RU,1680959681
510,Tiarei,-17.5333,-149.3333,26.01,77,22,10.19,PF,1680959681
511,Westport,41.1415,-73.3579,6.12,47,0,3.09,US,1680959597
512,Eureka,40.8021,-124.1637,8.19,96,100,0.45,US,1680959681
513,Beni Mazar,28.4962,30.8029,38.23,5,100,4.57,EG,1680959681
514,Norman Wells,65.282,-126.8329,-15.75,99,90,0.78,CA,1680959681
515,Vardo,70.3705,31.1107,1.99,93,75,10.29,NO,1680959682
516,Nata,8.3333,-80.5167,27.14,66,15,4.78,PA,1680959682
517,Naze,28.3667,129.4833,14.18,57,2,8.96,JP,1680959682
518,Opunake,-39.4556,173.8583,15.06,77,99,2.3,NZ,1680959682
519,Haines Junction,60.7522,-137.5108,-9.76,96,100,1.16,CA,1680959683
520,Richmond,37.5538,-77.4603,9.07,71,75,6.17,US,1680958923
521,Port-Gentil,-0.7193,8.7815,31.98,70,40,7.2,GA,1680959683
522,Orlik,52.5178,99.825,-3.3,89,100,0.99,RU,1680959683
523,Zima,53.9202,102.0442,-4.17,68,100,1.11,RU,1680959683
524,Murgab,37.4966,61.9714,29.15,17,0,5.82,TM,1680959683
525,Guerrero Negro,27.9769,-114.0611,12.5,86,22,4.88,MX,1680959684
526,Mount Gambier,-37.8333,140.7667,11.85,67,100,4.85,AU,1680959684
527,Kysyl-Syr,63.8986,122.7617,-16.83,97,99,1.83,RU,1680959684
528,Severobaykalsk,55.65,109.3167,-13.2,80,9,3.49,RU,1680959684
529,Orange Park,30.1661,-81.7065,24.45,85,75,3.09,US,1680959684
530,Kirakira,-10.4544,161.9205,27.05,84,7,2.23,SB,1680959684
531,Kupang,-10.1667,123.5833,24.32,100,100,1.03,ID,1680959486
532,Pietersburg,-23.9045,29.4688,29.58,18,3,0.5,ZA,1680959681
533,Wajir,1.7471,40.0573,35.02,33,30,5.01,KE,1680959685
534,Krasnoselkup,65.7,82.4667,-23.56,87,10,9.66,RU,1680959685
535,Faanui,-16.4833,-151.75,28.55,73,26,10.46,PF,1680959685
536,Gualaquiza,-3.4,-78.55,18.18,98,100,0.3,EC,1680959685
537,Conceicao Do Araguaia,-8.2578,-49.2647,26.28,80,93,2.15,BR,1680959685
538,Port Lincoln,-34.7333,135.8667,16.73,59,77,5.34,AU,1680959686
539,Marawi,7.9986,124.2928,20.5,91,100,1.09,PH,1680959686
540,Clarksburg,39.2807,-80.3445,6.25,55,0,3.6,US,1680959686
541,Bubaque,11.2833,-15.8333,26.43,52,46,3.09,GW,1680959686
542,Tomaszow Lubelski,50.4477,23.4162,9.99,60,100,5.02,PL,1680959686
543,Pangnirtung,66.1451,-65.7125,-22.34,88,40,0.9,CA,1680959686
544,Santa Cruz Do Sul,-29.7175,-52.4258,19.41,88,100,0.89,BR,1680959473
545,Quatre Cocos,-20.2078,57.7625,27.83,77,47,3.72,MU,1680959686
546,Half Moon Bay,37.4636,-122.4286,11.45,90,100,0.0,US,1680959685
547,Phangnga,8.4509,98.5298,29.02,79,14,0.53,TH,1680959687
548,Buala,-8.145,159.5921,26.94,81,100,1.02,SB,1680959687
549,Coaldale,49.7167,-112.6185,5.08,64,46,8.89,CA,1680959687
550,Manhuacu,-20.2581,-42.0336,25.73,70,79,1.37,BR,1680959687
551,Puerto Rondon,6.2805,-71.1,24.92,69,100,1.36,CO,1680959687
