City_ID,City,Lat,Lng,Max Temp,Humidity,Cloudiness,Wind Speed,Country,Date
0,Punta Arenas,-53.15,-70.9167,10.06,43,0,9.77,CL,1680729411
1,Kalabo,-14.97,22.6814,19.67,82,24,1.65,ZM,1680729411
2,Mataura,-46.1927,168.8643,6.33,95,97,4.14,NZ,1680729411
3,Hobart,-42.8794,147.3294,11.92,87,75,1.54,AU,1680729345
4,Albany,42.6001,-73.9662,13.15,64,100,2.24,US,1680729173
5,Morant Bay,17.8815,-76.4093,30.39,68,11,5.5,JM,1680729411
6,Yellowknife,62.456,-114.3525,-3.31,88,92,6.37,CA,1680729195
7,Isangel,-19.55,169.2667,27.36,73,5,3.87,VU,1680729412
8,Komsomolskiy,40.4272,71.7189,11.4,82,75,3.09,UZ,1680729412
9,Cabo San Lucas,22.8909,-109.9124,26.7,61,20,5.14,MX,1680729383
10,Hermanus,-34.4187,19.2345,17.67,66,0,3.63,ZA,1680729412
11,Constitucion,-35.3333,-72.4167,16.73,65,100,4.12,CL,1680729357
12,Rikitea,-23.1203,-134.9692,25.74,73,14,3.04,PF,1680729412
13,Barrow,71.2906,-156.7887,-20.99,77,100,4.63,US,1680729413
14,Severo-Kurilsk,50.6789,156.125,-0.63,71,20,5.42,RU,1680729413
15,Bredasdorp,-34.5322,20.0403,17.7,82,0,0.31,ZA,1680729339
16,Busselton,-33.65,115.3333,14.29,79,92,2.1,AU,1680729413
17,Vestmannaeyjar,63.4427,-20.2734,5.52,74,99,5.96,IS,1680729414
18,Maputo,-25.9653,32.5892,21.24,84,40,4.12,MZ,1680729414
19,Hilo,19.7297,-155.09,24.97,79,100,2.57,US,1680729368
20,Atuona,-9.8,-139.0333,27.16,77,8,6.19,PF,1680729414
21,Monte Aprazivel,-20.7725,-49.7142,25.17,70,42,2.38,BR,1680729303
22,Saskylakh,71.9167,114.0833,-18.08,96,100,3.87,RU,1680729415
23,Plum,40.5004,-79.7495,30.26,36,91,1.34,US,1680729415
24,Vrangel,42.7297,133.0839,6.27,96,100,7.59,RU,1680729415
25,Nieuw Amsterdam,5.8833,-55.0833,30.09,67,60,6.17,SR,1680729415
26,Nikolskoye,59.7035,30.7861,2.94,100,100,2.34,RU,1680729415
27,Ahipara,-35.1667,173.1667,15.25,90,100,2.73,NZ,1680729416
28,Mehamn,71.0357,27.8492,2.95,80,0,4.63,NO,1680729416
29,Safaga,26.7292,33.9365,22.92,33,0,7.55,EG,1680729416
30,Katobu,-4.9408,122.5276,23.31,87,100,0.17,ID,1680729416
31,Playas,-2.6333,-80.3833,28.36,71,66,4.8,EC,1680729417
32,Saldanha,-33.0117,17.9442,19.03,62,0,4.11,ZA,1680729417
33,Mar Del Plata,-38.0023,-57.5575,20.01,81,0,10.73,AR,1680729417
34,Asau,46.4333,26.4,-1.49,99,100,1.62,RO,1680729417
35,Wakkanai,45.4094,141.6739,6.24,89,100,6.43,JP,1680729417
36,Victoria,22.2855,114.1577,26.03,93,94,0.45,HK,1680729375
37,New Norfolk,-42.7826,147.0587,11.72,73,25,1.11,AU,1680729418
38,Beringovskiy,63.05,179.3167,-11.07,95,98,0.74,RU,1680729418
39,Teya,60.3778,92.6267,-5.07,88,100,4.59,RU,1680729418
40,Avarua,-21.2078,-159.775,27.03,69,91,1.03,CK,1680729418
41,Qaanaaq,77.484,-69.3632,-23.42,82,76,1.02,GL,1680729418
42,Korla,41.7597,86.1469,3.15,20,11,2.17,CN,1680729418
43,Bonavista,48.6499,-53.1147,-2.56,77,99,11.03,CA,1680729419
44,Pisco,-13.7,-76.2167,29.03,61,0,6.17,PE,1680729419
45,Puerto Ayora,-0.7393,-90.3518,29.98,94,95,2.24,EC,1680729419
46,Hamilton,39.1834,-84.5333,17.35,97,100,8.23,US,1680729308
47,Geraldton,-28.7667,114.6,15.23,82,0,5.14,AU,1680729419
48,Tuktoyaktuk,69.4541,-133.0374,-16.0,78,100,5.14,CA,1680729419
49,Provideniya,64.3833,-173.3,-13.94,66,75,5.0,RU,1680729420
50,Egvekinot,66.3167,-179.1667,-20.61,83,5,0.33,RU,1680729420
51,Codrington,-38.2667,141.9667,10.66,95,100,3.24,AU,1680729420
52,Borogontsy,62.6683,131.1683,-20.28,95,100,4.55,RU,1680729420
53,Bluff,-46.6,168.3333,8.3,78,100,11.84,NZ,1680729420
54,Boa Vista,2.8197,-60.6733,32.99,40,75,4.63,BR,1680729421
55,Warrington,53.3925,-2.5802,10.53,95,75,2.57,GB,1680729421
56,La Rioja,42.25,-2.5,4.88,41,74,2.39,ES,1680729421
57,Chokurdakh,70.6333,147.9167,-26.99,100,22,1.28,RU,1680729421
58,Cape Town,-33.9258,18.4232,21.73,71,0,2.06,ZA,1680729421
59,Kodiak,57.79,-152.4072,4.73,70,75,4.63,US,1680729422
60,Bubaque,11.2833,-15.8333,25.66,75,68,7.41,GW,1680729422
61,Aanekoski,62.6946,25.818,-2.96,32,100,1.54,FI,1680729422
62,Touros,-5.1989,-35.4608,24.95,88,100,4.64,BR,1680729422
63,Arraial Do Cabo,-22.9661,-42.0278,25.98,78,20,4.63,BR,1680729423
64,Mildura,-34.2,142.15,20.04,50,96,7.97,AU,1680729423
65,Chuy,-33.6971,-53.4616,19.18,66,45,4.59,UY,1680729423
66,Hasaki,35.7333,140.8333,15.22,68,100,10.29,JP,1680729423
67,Humboldt,40.6665,-123.9178,10.93,48,99,2.27,US,1680729272
68,Kavieng,-2.5744,150.7967,27.78,74,99,1.83,PG,1680729424
69,Keetmanshoop,-26.5833,18.1333,25.12,12,0,4.45,NA,1680729425
70,Saint-Philippe,-21.3585,55.7679,23.77,82,30,2.96,RE,1680729425
71,Ambuclao,16.4833,120.75,19.7,96,69,1.36,PH,1680729425
72,Clyde River,70.4692,-68.5914,-20.87,77,0,0.0,CA,1680729426
73,Guerrero Negro,27.9769,-114.0611,20.98,23,0,6.61,MX,1680729426
74,Ushuaia,-54.8,-68.3,10.81,43,0,9.77,AR,1680729426
75,Carnarvon,-24.8667,113.6333,22.66,63,0,6.18,AU,1680729427
76,Yulara,-25.2406,130.9889,21.57,63,0,2.79,AU,1680729427
77,Thompson,55.7435,-97.8558,0.09,27,75,5.14,CA,1680729427
78,Jamestown,42.097,-79.2353,24.77,69,100,11.83,US,1680729282
79,Zagoryanskiy,55.9325,37.9581,5.8,82,100,0.89,RU,1680729428
80,Cherskiy,68.75,161.3,-13.26,75,35,2.94,RU,1680729428
81,Port Augusta,-32.5,137.7667,17.23,61,54,2.01,AU,1680729428
82,Yoichi,43.2039,140.7703,8.18,78,100,2.43,JP,1680729429
83,Shingu,33.7333,135.9833,15.34,93,100,5.1,JP,1680729429
84,Roma,43.2128,-75.4557,19.08,63,40,4.12,US,1680729429
85,Longyearbyen,78.2186,15.6401,-4.09,86,100,10.8,SJ,1680729430
86,Kabalo,-6.05,26.9167,20.85,97,100,1.07,CD,1680729430
87,Torbay,47.6666,-52.7314,0.88,73,20,7.2,CA,1680729331
88,Souillac,-20.5167,57.5167,23.21,94,40,1.54,MU,1680729431
89,Upernavik,72.7868,-56.1549,-22.74,96,100,2.4,GL,1680729427
90,Rio Grande,-32.035,-52.0986,23.06,62,90,5.87,BR,1680729431
91,Port Lincoln,-34.7333,135.8667,16.85,77,10,3.5,AU,1680729432
92,Glendive,47.1053,-104.7125,-0.73,54,0,8.23,US,1680729432
93,Tarauaca,-8.1614,-70.7656,23.91,94,100,1.03,BR,1680729432
94,San Patricio,28.017,-97.5169,20.92,52,100,9.21,US,1680729432
95,East London,-33.0153,27.9116,19.77,69,0,6.96,ZA,1680729432
96,Talnakh,69.4865,88.3972,-27.11,96,43,4.83,RU,1680729432
97,Port Hedland,-20.3167,118.5667,27.03,83,37,2.57,AU,1680729433
98,Presidencia Roque Saenz Pena,-26.7852,-60.4388,22.18,78,98,2.81,AR,1680729433
99,Gayeri,12.6497,0.4931,31.19,30,100,4.17,BF,1680729433
100,Georgetown,5.4112,100.3354,23.96,94,20,0.0,MY,1680729348
101,Dong Hoi,17.4833,106.6,25.4,77,7,1.71,VN,1680729433
102,Namibe,-15.1961,12.1522,25.24,84,99,1.89,AO,1680729434
103,Iquique,-20.2208,-70.1431,25.02,79,3,2.66,CL,1680729434
104,Waingapu,-9.6567,120.2641,24.81,82,91,1.45,ID,1680729434
105,Victor Harbor,-35.5667,138.6167,19.82,46,90,3.37,AU,1680729435
106,Na Wa,17.4897,104.1006,27.56,42,8,2.39,TH,1680729435
107,Esperance,-33.8667,121.9,18.27,69,70,9.23,AU,1680729435
108,Avera,33.194,-82.5271,31.03,43,44,4.23,US,1680729435
109,Hithadhoo,-0.6,73.0833,27.85,73,24,2.7,MV,1680729435
110,Ponta Do Sol,32.6667,-17.1,18.34,47,4,3.4,PT,1680729436
111,La Joya,18.6667,-99.4667,35.77,14,3,2.45,MX,1680729436
112,Dudinka,69.4058,86.1778,-26.88,99,28,4.08,RU,1680729436
113,Port Alfred,-33.5906,26.891,17.88,87,0,0.45,ZA,1680729436
114,Mahebourg,-20.4081,57.7,24.58,94,40,1.54,MU,1680729436
115,Khatanga,71.9667,102.5,-32.44,100,63,3.21,RU,1680729437
116,Kavaratti,10.5669,72.642,27.26,74,6,2.9,IN,1680729437
117,Stornoway,58.2093,-6.3865,8.29,92,20,1.03,GB,1680729437
118,Henties Bay,-22.116,14.2845,18.08,82,87,3.23,NA,1680729438
119,Karratha,-20.7377,116.8463,27.79,67,93,3.6,AU,1680729438
120,Acapulco,16.8634,-99.8901,30.9,62,0,2.06,MX,1680729311
121,Ilinskoye-Khovanskoye,56.9718,39.7684,4.12,87,98,5.34,RU,1680729438
122,Vaini,-21.2,-175.2,27.09,78,40,5.66,TO,1680729438
123,Gorontalo,0.5412,123.0595,23.65,93,99,1.23,ID,1680729439
124,Tasiilaq,65.6145,-37.6368,-3.91,92,100,5.68,GL,1680729439
125,San Joaquin,37.9333,-121.3011,17.7,44,0,3.6,US,1680729439
126,Ribeira Grande,38.5167,-28.7,15.99,88,20,3.09,PT,1680729439
127,Turukhansk,65.8167,87.9833,-6.27,97,100,2.0,RU,1680729439
128,Artsyz,45.9919,29.4182,1.81,90,100,11.36,UA,1680729440
129,Basco,20.4487,121.9702,24.96,74,97,5.94,PH,1680729440
130,Palmer,42.1584,-72.3287,9.68,70,100,3.6,US,1680729440
131,Ostrovnoy,68.0531,39.5131,-8.72,97,86,3.66,RU,1680729440
132,Tuatapere,-46.1333,167.6833,7.29,88,100,5.79,NZ,1680729441
133,Kawalu,-7.3817,108.2082,22.32,97,100,0.33,ID,1680729441
134,Caravelas,-17.7125,-39.2481,25.35,79,34,2.75,BR,1680729441
135,Sibu,2.3,111.8167,24.17,94,40,2.06,MY,1680729442
136,Lasa,46.6166,10.7002,4.49,85,59,2.03,IT,1680729442
137,Teguldet,57.3064,88.1667,-3.86,86,100,2.42,RU,1680729442
138,Margherita,27.2833,95.6833,17.25,96,83,0.6,IN,1680729442
139,Riyadh,24.6877,46.7219,20.08,15,90,2.12,SA,1680729257
140,Paamiut,61.994,-49.6678,-0.78,82,52,2.29,GL,1680729442
141,Kapaa,22.0752,-159.319,26.18,81,75,7.2,US,1680729368
142,La Palma,33.8464,-118.0467,23.15,43,20,5.66,US,1680729443
143,Srednekolymsk,67.45,153.6833,-15.75,80,7,1.07,RU,1680729443
144,Villa Maria,-32.4075,-63.2402,24.9,64,59,3.44,AR,1680729337
145,Kieta,-6.2167,155.6333,27.27,76,99,0.57,PG,1680729443
146,Skibbereen,51.55,-9.2667,9.5,87,100,4.28,IE,1680729360
147,Castro,-24.7911,-50.0119,18.17,84,96,1.68,BR,1680729444
148,Sidi Ali,36.0998,0.4206,13.1,52,1,5.76,DZ,1680729444
149,Edd,13.9297,41.6925,30.97,56,21,6.84,ER,1680729373
150,Trapani,37.8333,12.6667,10.05,71,20,6.17,IT,1680729444
151,Ornskoldsvik,63.2909,18.7153,-3.47,68,39,1.54,SE,1680729445
152,Husavik,66.0449,-17.3389,-0.74,95,100,2.17,IS,1680729445
153,Kruisfontein,-34.0033,24.7314,16.6,70,1,2.16,ZA,1680729445
154,Villa Bisono,19.5638,-70.8758,30.21,56,14,7.3,DO,1680729445
155,Dongli,23.5656,116.8194,20.99,100,75,3.0,CN,1680729446
156,Isla Vista,34.4133,-119.861,19.99,39,0,4.63,US,1680729446
157,Pilar,-9.5972,-35.9567,25.96,80,78,2.27,BR,1680729446
158,Kaitangata,-46.2817,169.8464,9.96,82,51,6.11,NZ,1680729446
159,Bethel,41.3712,-73.414,10.99,84,100,4.63,US,1680729195
160,Nome,64.5011,-165.4064,-16.58,65,0,0.0,US,1680729412
161,Bilibino,68.0546,166.4372,-18.79,87,36,1.2,RU,1680729448
162,Pacific Grove,36.6177,-121.9166,15.3,67,0,5.14,US,1680729288
163,Noyabrsk,63.1994,75.4507,-0.71,98,100,4.22,RU,1680729448
164,Uruzgan,32.8333,66.0,9.87,33,4,0.64,AF,1680729448
165,Weligama,5.9667,80.4167,25.06,85,50,0.61,LK,1680729449
166,Barahona,18.2085,-71.1008,26.9,69,40,10.29,DO,1680729449
167,Terme,41.2092,36.9739,9.96,91,100,2.79,TR,1680729449
168,Korem,12.5058,39.5228,13.43,91,90,1.68,ET,1680729449
169,Ancud,-41.8697,-73.8203,11.96,90,100,0.95,CL,1680729449
170,Mecca,21.4267,39.8261,26.04,42,80,1.14,SA,1680729301
171,Marquette,46.5333,-87.6335,4.27,94,100,6.71,US,1680729450
172,Maridi,4.9158,29.4742,24.21,50,62,1.9,SS,1680729450
173,Otjimbingwe,-22.35,16.1333,26.74,30,79,1.85,NA,1680729451
174,Grudziadz,53.4841,18.7537,1.77,63,37,1.69,PL,1680729452
175,Upington,-28.4478,21.2561,17.21,34,0,0.51,ZA,1680729452
176,Westbrook,43.677,-70.3712,3.2,69,100,5.66,US,1680729364
177,Eureka,40.8021,-124.1637,15.97,63,100,3.13,US,1680729327
178,Milkovo,54.7167,158.6167,-3.13,64,44,3.63,RU,1680729452
179,Krasnyy Bogatyr,56.0145,41.1296,5.87,87,41,4.06,RU,1680729453
180,Boda,4.3189,17.4695,28.54,43,100,0.89,CF,1680729453
181,Pitimbu,-7.4706,-34.8086,25.33,71,82,4.59,BR,1680729453
182,Lompoc,34.6391,-120.4579,19.32,58,75,8.23,US,1680729454
183,Zhigansk,66.7697,123.3711,-30.94,97,99,2.36,RU,1680729454
184,Grandview,38.8858,-94.533,11.67,43,0,5.14,US,1680729179
185,Emerald,-23.5333,148.1667,23.0,62,2,2.91,AU,1680729454
186,Matveyevka,52.15,56.1833,7.59,66,21,1.51,RU,1680729455
187,Jumla,29.2747,82.1838,5.07,62,0,2.05,NP,1680729455
188,Garoua,9.3,13.4,32.49,14,97,0.46,CM,1680729455
189,Tomatlan,19.9333,-105.25,31.52,35,39,4.45,MX,1680729456
190,Charyshskoye,51.3978,83.5598,1.33,72,4,1.44,RU,1680729456
191,Benguela,-12.5763,13.4055,27.02,80,100,2.69,AO,1680729456
192,Cockburn Town,21.4612,-71.1419,25.01,78,0,8.88,TC,1680729456
193,Coihaique,-45.5752,-72.0662,16.34,59,40,1.54,CL,1680729457
194,Sivas,39.7916,37.0019,2.35,93,75,1.54,TR,1680729457
195,Awjilah,29.1081,21.2869,21.08,20,0,4.6,LY,1680729457
196,Senanga,-16.1167,23.2667,20.91,67,90,1.56,ZM,1680729457
197,Butaritari,3.0707,172.7902,27.84,83,60,8.4,KI,1680729457
198,Erzurum,40.0,41.5,1.82,72,45,1.2,TR,1680729457
199,Jieshi,22.8134,115.8257,23.08,89,100,1.45,CN,1680729458
200,Afrikanda,67.4429,32.7828,-1.51,97,100,1.51,RU,1680729458
201,Gairo,39.8497,9.5047,2.87,79,0,2.53,IT,1680729458
202,Cidreira,-30.1811,-50.2056,22.15,63,100,5.67,BR,1680729459
203,Havre-Saint-Pierre,50.2334,-63.5986,0.2,34,0,7.72,CA,1680729459
204,Houlton,46.1262,-67.8403,-2.38,75,100,2.57,US,1680729439
205,Mbigou,-1.9005,11.906,20.65,96,96,1.01,GA,1680729459
206,Hofn,64.2539,-15.2082,5.79,87,3,3.44,IS,1680729459
207,Vila Velha,-20.3297,-40.2925,24.97,88,75,4.12,BR,1680729183
208,Nautla,20.2167,-96.7833,29.72,65,57,7.33,MX,1680729460
209,Ziro,27.6333,93.8333,8.18,97,97,0.55,IN,1680729460
210,Pevek,69.7008,170.3133,-23.69,80,25,0.77,RU,1680729461
211,Jiayuguan,39.8167,98.3,-1.23,25,0,1.64,CN,1680729461
212,Dakar,14.6937,-17.4441,24.49,78,0,3.09,SN,1680729461
213,Kangaatsiaq,68.3065,-53.4641,-17.69,93,31,1.85,GL,1680729461
214,High Level,58.5169,-117.136,-0.94,80,75,4.12,CA,1680729461
215,Andenes,69.3143,16.1194,4.4,75,0,5.14,NO,1680729461
216,Aklavik,68.2191,-135.0107,-14.8,84,100,4.37,CA,1680729462
217,Kitimat,54.0524,-128.6534,7.73,68,100,1.33,CA,1680729331
218,Lebu,-37.6167,-73.65,15.6,83,95,4.23,CL,1680729462
219,Berlevag,70.8578,29.0864,2.97,65,40,6.69,NO,1680729462
220,Dromolaxia,34.8761,33.586,13.81,77,0,2.06,CY,1680729463
221,Ilulissat,69.2167,-51.1,-11.99,61,20,6.69,GL,1680729463
222,Yonibana,8.4447,-12.245,27.5,66,89,1.76,SL,1680729463
223,Tromso,69.6496,18.957,3.54,75,0,1.54,NO,1680729463
224,Nanortalik,60.1432,-45.2371,-0.02,93,100,1.81,GL,1680729464
225,Richards Bay,-28.783,32.0377,19.64,83,67,2.15,ZA,1680729464
226,Wanaka,-44.7,169.15,10.21,75,17,2.22,NZ,1680729464
227,Umm Lajj,25.0213,37.2685,23.89,53,97,2.38,SA,1680729465
228,Whitianga,-36.8333,175.7,15.81,78,100,0.51,NZ,1680729465
229,Trinidad,-14.8333,-64.9,22.99,100,100,2.06,BO,1680729465
230,Pochutla,15.7432,-96.4661,33.79,46,1,5.19,MX,1680729465
231,Lavrentiya,65.5833,-171.0,-20.09,93,36,0.99,RU,1680729465
232,Kisanga,-7.4362,37.7034,22.3,97,67,0.44,TZ,1680729466
233,Pemangkat,1.1667,108.9667,25.58,86,100,2.83,ID,1680729466
234,The Valley,18.217,-63.0578,24.92,78,95,8.42,AI,1680729466
235,Ixtapa,20.7,-105.2,25.57,65,40,5.66,MX,1680729466
236,Ponta Delgada,37.7333,-25.6667,15.4,88,75,1.03,PT,1680729466
237,Dikson,73.5069,80.5464,-32.62,100,65,3.83,RU,1680729467
238,Nouadhibou,20.931,-17.0347,18.99,72,15,7.2,MR,1680729467
239,Sulangan,11.1373,123.7228,26.3,69,97,5.09,PH,1680729467
240,Plover,44.4564,-89.544,7.47,55,100,10.73,US,1680729468
241,Fairbanks,64.8378,-147.7164,-2.02,79,100,3.6,US,1680729333
242,Santa Marta,11.2408,-74.199,34.03,58,20,11.18,CO,1680729418
243,Opuwo,-18.0607,13.84,22.59,46,84,1.85,NA,1680729469
244,Airai,-8.9266,125.4092,14.83,90,100,0.47,TL,1680729469
245,Delta Del Tigre,-34.7633,-56.3853,21.23,68,40,6.69,UY,1680729470
246,Rockland,41.1668,-74.0496,10.93,88,100,1.34,US,1680729331
247,Svetlyy,54.675,20.1347,2.03,86,6,2.01,RU,1680729470
248,Lata,40.1629,-8.3327,13.84,66,95,0.6,PT,1680729471
249,Suzun,53.7841,82.3116,-2.71,98,49,0.96,RU,1680729471
250,Mirnyy,62.5353,113.9611,-15.51,95,100,4.11,RU,1680729471
251,Raudeberg,61.9875,5.1352,6.04,63,100,8.57,NO,1680729472
252,Mount Gambier,-37.8333,140.7667,11.6,87,100,2.18,AU,1680729472
253,Assiniboia,49.6334,-105.9845,-9.1,62,6,3.6,CA,1680729355
254,Alugan,12.2188,125.4808,23.93,82,93,2.74,PH,1680729472
255,Noumea,-22.2763,166.4572,25.56,99,2,5.95,NC,1680729473
256,Bunia,1.5667,30.25,18.74,80,99,0.89,CD,1680729473
257,Los Llanos De Aridane,28.6585,-17.9182,17.86,84,0,6.69,ES,1680729473
258,Hammerfest,70.6634,23.6821,4.25,65,0,1.03,NO,1680729473
259,Caxito,-8.5785,13.6643,24.43,92,89,0.7,AO,1680729473
260,Kaseda,31.4167,130.3167,18.84,91,100,7.99,JP,1680729474
261,Leningradskiy,69.3833,178.4167,-24.18,90,45,3.53,RU,1680729474
262,Najran,17.4924,44.1277,23.36,35,16,1.56,SA,1680729474
263,Luderitz,-26.6481,15.1594,19.95,66,93,2.6,NA,1680729474
264,Goderich,43.7501,-81.7165,14.95,98,100,7.85,CA,1680729267
265,Lao Cai,22.4833,103.95,23.24,47,22,0.89,VN,1680729474
266,Pandan,14.0453,124.1694,24.82,87,100,5.34,PH,1680729475
267,Byron Bay,-28.65,153.6167,17.06,84,90,4.92,AU,1680729475
268,Hambantota,6.1241,81.1185,25.82,82,33,1.01,LK,1680729475
269,Safford,32.834,-109.7076,17.08,9,0,1.54,US,1680729475
270,Matay,28.419,30.7792,19.23,33,0,4.28,EG,1680729476
271,Sorata,-15.7667,-68.6333,11.47,75,99,2.72,BO,1680729476
272,Norman Wells,65.282,-126.8329,-2.98,59,75,2.06,CA,1680729476
273,Cayenne,4.9333,-52.3333,27.02,69,75,5.14,GF,1680729476
274,Niquero,20.0431,-77.5828,29.31,58,5,5.51,CU,1680729476
275,Alta Floresta,-9.8756,-56.0861,25.26,91,80,0.65,BR,1680729477
276,Svetlaya,46.5389,138.3297,2.94,62,100,3.21,RU,1680729477
277,Inhambane,-23.865,35.3833,20.62,89,3,3.3,MZ,1680729477
278,Tabatinga,-4.2525,-69.9381,26.05,88,20,1.54,BR,1680729206
279,Dayong,25.0209,118.2898,21.12,97,95,0.71,CN,1680729478
280,Owase,34.0667,136.2,15.2,94,100,5.01,JP,1680729478
281,Kahului,20.8947,-156.47,28.01,60,20,10.29,US,1680729479
282,Port-Cartier,50.0334,-66.8654,-2.18,62,100,1.36,CA,1680729479
283,Nalut,30.3333,10.85,17.03,36,56,11.1,LY,1680729480
284,Quang Ngai,15.1167,108.8,23.51,91,3,2.37,VN,1680729480
285,La Romana,18.4273,-68.9728,28.2,65,40,5.66,DO,1680729480
286,Ocotal,13.6321,-86.4752,33.34,21,1,3.71,NI,1680729480
287,Aitape,-3.1374,142.3475,25.17,86,100,1.82,PG,1680729481
288,Negombo,7.2083,79.8358,25.37,83,76,2.68,LK,1680729481
289,Grand Gaube,-20.0064,57.6608,24.65,74,1,1.34,MU,1680729482
290,Nemuro,43.3236,145.575,2.41,89,75,0.75,JP,1680729482
291,Rio Gallegos,-51.6226,-69.2181,13.03,26,0,11.83,AR,1680729482
292,Jinchang,38.4953,102.1739,-0.45,32,0,1.92,CN,1680729482
293,Yabelo,4.8833,38.0833,15.78,75,99,2.23,ET,1680729482
294,Aksarka,66.5606,67.7975,-18.93,89,100,10.75,RU,1680729483
295,Tessalit,20.1986,1.0114,28.75,7,88,2.34,ML,1680729483
296,Ovsyanka,55.9575,92.5519,-6.46,88,100,1.94,RU,1680729483
297,Mezhdurechensk,53.6942,88.0603,-3.05,89,29,1.29,RU,1680729483
298,Bambanglipuro,-7.95,110.2833,24.71,84,48,1.43,ID,1680729483
299,Tymovskoye,50.8456,142.655,-2.39,76,9,2.28,RU,1680729484
300,Athabasca,54.7169,-113.2854,2.22,70,81,2.34,CA,1680729330
301,Soyo,-6.1349,12.3689,26.44,80,96,2.51,AO,1680729484
302,Morehead,37.2711,-87.1764,17.1,94,100,4.12,US,1680729484
303,Hazorasp,41.3194,61.0742,8.91,42,14,3.59,UZ,1680729484
304,Bengkulu,-3.8004,102.2655,23.1,92,98,1.91,ID,1680729485
305,Yanam,16.7333,82.2167,25.34,90,8,1.48,IN,1680729485
306,Meulaboh,4.1363,96.1285,23.78,87,98,1.85,ID,1680729485
307,Laguna,38.421,-121.4238,18.05,39,0,1.54,US,1680729485
308,Bambous Virieux,-20.3428,57.7575,24.56,94,40,1.54,MU,1680729485
309,Ovalle,-30.5983,-71.2003,27.18,34,32,3.25,CL,1680729485
310,Naze,28.3667,129.4833,19.51,87,100,7.37,JP,1680729486
311,Rawson,-43.3002,-65.1023,28.16,26,0,8.23,AR,1680729486
312,Pangnirtung,66.1451,-65.7125,-19.0,71,40,3.09,CA,1680729486
313,San Rafael,-34.6177,-68.3301,26.94,35,100,6.29,AR,1680729486
314,Peniche,39.3558,-9.3811,14.5,85,94,6.86,PT,1680729486
315,Pospelikha,51.95,81.7667,1.41,80,3,2.63,RU,1680729487
316,Maxixe,-23.8597,35.3472,20.01,91,2,2.9,MZ,1680729487
317,San Quintin,30.4833,-115.95,16.23,48,28,5.8,MX,1680729487
318,Taonan,45.3333,122.7833,3.33,22,51,3.26,CN,1680729488
319,Port Elizabeth,-33.918,25.5701,19.16,88,0,5.14,ZA,1680729488
320,Pirmasens,49.2015,7.6053,3.84,65,13,1.0,DE,1680729272
321,Korhogo,9.45,-5.6333,26.88,60,99,0.78,CI,1680729489
322,Kamskoye Ustye,55.2016,49.268,8.0,80,29,4.24,RU,1680729489
323,Wajima,37.4,136.9,12.63,81,100,6.48,JP,1680729489
324,Tiksi,71.6872,128.8694,-22.19,97,100,3.25,RU,1680729489
325,Calamar,10.2511,-74.9146,34.12,42,95,6.0,CO,1680729490
326,Vardo,70.3705,31.1107,1.99,87,40,4.63,NO,1680729490
327,Nuevo Progreso,23.1667,-97.95,29.94,61,100,3.13,MX,1680729490
328,Copala,16.65,-98.9833,29.98,57,5,5.05,MX,1680729491
329,Xining,36.6167,101.7667,-3.92,45,65,0.64,CN,1680729491
330,Port Blair,11.6667,92.75,25.02,88,40,0.0,IN,1680729491
331,Dera Ghazi Khan,30.0561,70.6348,19.07,67,29,4.51,PK,1680729491
332,Kuusamo,65.9667,29.1833,-4.98,80,0,1.03,FI,1680729492
333,Tazmalt,36.3868,4.3989,8.07,67,0,2.51,DZ,1680729492
334,Sur,22.5667,59.5289,24.48,64,0,4.29,OM,1680729492
335,Gidole,5.65,37.3667,14.3,80,92,1.11,ET,1680729492
336,Faanui,-16.4833,-151.75,28.07,69,11,3.17,PF,1680729493
337,Norsup,-16.0667,167.3833,28.08,76,60,2.94,VU,1680729493
338,Lazaro Cardenas,17.9583,-102.2,28.2,63,100,4.82,MX,1680729493
339,Riachao,-7.3619,-46.6172,23.62,87,100,0.56,BR,1680729494
340,Klaksvik,62.2266,-6.589,7.51,86,46,2.95,FO,1680729494
341,Mosquera,4.7059,-74.2302,19.05,68,40,6.17,CO,1680729494
342,Svetlogorsk,52.6333,29.7333,2.98,99,99,4.18,BY,1680729495
343,Arman,59.7,150.1667,-10.8,96,99,0.84,RU,1680729495
344,Tomaszow Lubelski,50.4477,23.4162,-0.54,67,100,3.54,PL,1680729495
345,Cartagena,10.3997,-75.5144,31.79,58,20,5.66,CO,1680729252
346,Mirandola,44.8868,11.0662,5.61,57,3,2.78,IT,1680729497
347,Adrar,20.5022,-10.0711,21.91,22,0,4.86,MR,1680729497
348,Chistoye,56.5375,43.0045,4.92,89,49,4.27,RU,1680729498
349,Port Hardy,50.6996,-127.4199,7.69,72,100,10.63,CA,1680729332
350,Marawi,7.9986,124.2928,18.46,95,75,0.58,PH,1680729498
351,Santa Isabel Do Rio Negro,-0.4139,-65.0192,28.17,69,100,1.34,BR,1680729498
352,Ketchikan,55.3422,-131.6461,4.99,87,100,8.75,US,1680729498
353,Syracuse,37.0881,15.2792,10.65,64,22,6.7,IT,1680729325
354,Imbituba,-28.24,-48.6703,21.42,80,100,3.32,BR,1680729499
355,Khabary,53.6259,79.5345,1.68,81,12,3.4,RU,1680729499
356,Otradnoye,59.7775,30.8181,3.03,99,100,2.36,RU,1680729499
357,Kloulklubed,7.0419,134.2556,27.62,76,100,7.09,PW,1680729500
358,Bowen,-20.0167,148.2333,24.78,87,18,1.62,AU,1680729500
359,Negara,-8.3151,114.6025,24.04,90,98,1.52,ID,1680729500
360,Fuerte Olimpo,-21.0415,-57.8738,22.71,95,100,1.89,PY,1680729500
361,Bathsheba,13.2167,-59.5167,28.34,65,20,6.69,BB,1680729501
362,Novobirilyussy,56.9514,90.6661,-4.64,79,100,2.69,RU,1680729501
363,Tambacounda,13.7539,-13.7586,36.03,20,0,2.06,SN,1680729502
364,Batagay-Alyta,67.8006,130.4114,-20.25,99,100,1.25,RU,1680729502
365,Thinadhoo,0.5333,72.9333,28.24,69,13,2.8,MV,1680729502
366,Tautira,-17.7333,-149.15,27.71,74,53,3.55,PF,1680729503
367,Krasnoselkup,65.7,82.4667,-6.01,97,100,3.28,RU,1680729504
368,College,64.8569,-147.8028,-2.03,79,100,3.6,US,1680729504
369,Gumdag,39.2061,54.5906,15.34,38,17,6.6,TM,1680729504
370,Gravdal,68.1214,13.5031,3.94,75,0,2.57,NO,1680729505
371,Tateyama,34.9833,139.8667,17.39,69,100,9.73,JP,1680729505
372,Tura,25.5198,90.2201,20.19,85,0,2.16,IN,1680729505
373,Montepuez,-13.1256,38.9997,20.3,97,78,1.9,MZ,1680729505
374,Mayumba,-3.432,10.6554,26.52,84,98,3.08,GA,1680729506
375,Coruripe,-10.1256,-36.1756,25.67,77,100,3.29,BR,1680729429
376,Cap Malheureux,-19.9842,57.6142,24.7,74,1,1.34,MU,1680729506
377,Chicama,-7.8447,-79.1469,29.3,65,93,4.62,PE,1680729506
378,Saint-Ambroise,48.5501,-71.3324,-0.82,89,100,4.15,CA,1680729506
379,Muros,42.7762,-9.0603,12.13,75,34,4.31,ES,1680729506
380,Taoudenni,22.6783,-3.9836,26.8,15,0,5.69,ML,1680729507
381,Meadow Lake,34.8014,-106.5436,9.64,11,10,2.76,US,1680729507
382,Hirara,24.8,125.2833,23.15,78,100,5.14,JP,1680729507
383,Nador,35.174,-2.9287,17.14,63,0,4.63,MA,1680729507
384,Dhidhdhoo,6.8833,73.1,27.96,72,1,2.35,MV,1680729508
385,Fernley,39.608,-119.2518,9.48,28,16,0.76,US,1680729508
386,Port Hawkesbury,45.6169,-61.3485,0.1,66,0,4.12,CA,1680729508
387,Balykshi,47.0667,51.8667,7.0,81,6,3.0,KZ,1680729508
388,Butajira,8.1167,38.3667,15.76,84,87,2.18,ET,1680729509
389,Lorengau,-2.0226,147.2712,27.35,77,78,1.46,PG,1680729509
390,Villa Bruzual,9.3328,-69.1208,36.18,25,64,1.25,VE,1680729509
391,Muli,2.9167,73.5667,27.77,68,4,1.37,MV,1680729509
392,Poum,-20.2333,164.0167,26.89,79,1,5.43,NC,1680729509
393,Gilroy,37.0058,-121.5683,18.29,41,0,1.54,US,1680729213
394,Jalu,29.0331,21.5482,21.14,19,0,4.57,LY,1680729510
395,Iqaluit,63.7506,-68.5145,-15.15,72,75,9.26,CA,1680729510
396,Millbrook,32.4799,-86.3619,32.04,43,75,5.66,US,1680729510
397,Whitehorse,60.7161,-135.0538,0.08,84,100,3.25,CA,1680729253
398,Swan Hill,-35.3378,143.5544,20.31,44,100,3.5,AU,1680729511
399,Nara,34.6851,135.8049,14.62,30,100,1.58,JP,1680729511
400,Talagang,32.9297,72.4158,16.53,64,14,1.86,PK,1680729511
401,Pouebo,-20.4,164.5667,26.48,79,1,3.48,NC,1680729512
402,Staraya Mayna,54.6,48.95,6.06,73,79,3.93,RU,1680729512
403,Puerto Escondido,15.85,-97.0667,31.46,66,0,5.14,MX,1680729512
404,Uinskoye,56.8817,56.5813,5.77,93,65,2.66,RU,1680729512
405,Wilmington,34.2257,-77.9447,28.95,59,0,5.14,US,1680729513
406,Ternate,0.8,127.4,26.68,77,100,1.73,ID,1680729513
407,Sabzevar,36.2126,57.6819,14.49,31,27,2.77,IR,1680729513
408,Honningsvag,70.9821,25.9704,2.86,75,0,10.29,NO,1680729513
409,Spencer,43.1414,-95.1444,-0.8,77,100,10.37,US,1680729217
410,Deputatskiy,69.3,139.9,-17.28,94,100,2.22,RU,1680729514
411,Sinnamary,5.3833,-52.95,26.19,70,95,4.13,GF,1680729514
412,Yar-Sale,66.8333,70.8333,-19.18,92,100,9.87,RU,1680729514
413,Vanimo,-2.6741,141.3028,24.92,87,100,1.64,PG,1680729514
414,Chipinge,-20.1883,32.6236,15.9,86,73,1.07,ZW,1680729515
415,Bandarbeyla,9.4942,50.8122,27.31,79,48,3.5,SO,1680729515
416,Dingle,10.9995,122.6711,22.08,82,97,2.55,PH,1680729515
417,Wonthaggi,-38.6044,145.5913,13.23,92,9,2.85,AU,1680729515
418,Haines Junction,60.7522,-137.5108,2.97,52,100,1.54,CA,1680729516
419,Mayor Pablo Lagerenza,-19.9309,-60.7718,22.53,95,98,3.84,PY,1680729516
420,Batemans Bay,-35.7167,150.1833,17.28,82,41,1.66,AU,1680729516
421,Nicolas Bravo,18.45,-88.9167,33.15,36,8,5.0,MX,1680729516
422,Vaitape,-16.5167,-151.75,28.08,69,11,3.15,PF,1680729517
423,Margate,51.3813,1.3862,8.82,73,100,1.34,GB,1680729517
424,Yerbogachen,61.2767,108.0108,-12.1,95,100,3.74,RU,1680729517
425,Qeshm,26.9581,56.2719,21.94,69,0,4.14,IR,1680729517
426,Agirish,61.9247,63.0231,-1.11,91,99,4.53,RU,1680729519
427,Odweyne,9.4092,45.064,25.21,58,22,2.99,SO,1680729521
428,Sabha,27.0377,14.4283,25.08,12,4,6.8,LY,1680729521
429,Chake Chake,-5.2459,39.7666,25.79,80,97,1.73,TZ,1680729521
430,Xiongyue,40.1774,122.1228,4.6,52,100,1.79,CN,1680729522
431,Mpongwe,-13.5091,28.155,16.12,94,59,2.14,ZM,1680729522
432,Imeni Poliny Osipenko,52.4201,136.4853,-2.8,79,18,1.34,RU,1680729522
433,Katsuura,35.1333,140.3,17.02,70,100,9.9,JP,1680729522
434,Saint George,37.1041,-113.5841,11.25,17,0,4.02,US,1680729522
435,Nantucket,41.2835,-70.0995,7.08,93,100,5.14,US,1680729522
436,Ewa Beach,21.3156,-158.0072,27.97,61,40,8.75,US,1680729523
437,Kokoda,-8.8785,147.7407,23.86,90,86,0.59,PG,1680729523
438,Ayia Paraskevi,40.4833,23.05,10.59,51,20,4.12,GR,1680729524
439,Pryozerne,45.2698,36.3303,9.68,84,100,7.93,UA,1680729524
440,Escada,-8.3592,-35.2236,27.41,79,75,2.37,BR,1680729524
441,Mackenzie,55.2999,-123.1698,3.12,56,100,4.12,CA,1680729524
442,San Felipe,10.3399,-68.7425,26.87,70,68,4.17,VE,1680729525
443,Lamu,-2.2717,40.902,28.12,79,100,3.68,KE,1680729525
444,Dunhua,43.3725,128.2425,3.01,97,100,2.41,CN,1680729525
445,Alofi,-19.0595,-169.9187,28.94,74,75,3.09,NU,1680729525
446,Araouane,18.9048,-3.5265,28.64,9,99,4.31,ML,1680729525
447,Juneau,58.3019,-134.4197,5.68,94,100,6.69,US,1680729526
448,Te Anau,-45.4167,167.7167,6.94,85,97,2.21,NZ,1680729526
449,Lincoln,40.8,-96.667,8.98,41,0,9.77,US,1680729360
450,Nishihara,26.1842,127.7558,21.81,86,75,8.75,JP,1680729526
451,Preobrazheniye,42.9019,133.9064,5.89,96,100,7.08,RU,1680729526
452,Tukrah,32.5341,20.5791,14.52,64,55,1.64,LY,1680729526
453,Itarema,-2.9248,-39.9167,25.63,83,81,2.35,BR,1680729527
454,Fukue,32.6881,128.8419,15.28,84,100,7.07,JP,1680729527
455,Itigi,-5.7,34.4833,17.16,97,44,2.24,TZ,1680729527
456,San Carlos De Bariloche,-41.1456,-71.3082,12.86,76,75,6.69,AR,1680729527
457,Banatski Karlovac,45.0472,21.0161,3.11,90,100,2.81,RS,1680729528
458,Fortuna,40.5982,-124.1573,13.84,56,98,3.13,US,1680729528
459,Sorong,-0.8833,131.25,26.34,79,100,1.05,ID,1680729528
460,Trairi,-3.2778,-39.2689,24.43,91,99,1.54,BR,1680729346
461,Gasa,31.5,34.4667,12.16,76,0,2.92,PS,1680729371
462,Isla Mujeres,21.2311,-86.731,29.03,75,89,6.8,MX,1680729529
463,Nuuk,64.1835,-51.7216,-0.66,59,12,16.98,GL,1680729529
464,Falesti,47.5736,27.7092,0.26,97,100,10.35,MD,1680729529
465,Joshimath,30.5667,79.5667,6.27,50,15,3.61,IN,1680729529
466,Yantai,37.5333,121.4,6.95,65,66,4.68,CN,1680729529
467,Vilhena,-12.7406,-60.1458,24.12,88,75,4.12,BR,1680729530
468,Auki,-8.7676,160.7034,26.53,80,100,0.76,SB,1680729530
469,Saint-Augustin,51.226,-58.6502,-1.44,59,52,7.33,CA,1680729530
470,Luanda,-8.8368,13.2343,27.0,83,20,3.09,AO,1680729530
471,Matadi,-5.8167,13.45,24.93,91,100,0.94,CD,1680729531
472,Tiarei,-17.5333,-149.3333,31.01,74,58,3.08,PF,1680729531
473,Liverpool,53.4106,-2.9779,11.01,92,75,2.57,GB,1680729317
474,Mount Pleasant,32.7941,-79.8626,29.08,75,75,4.63,US,1680729531
475,Kanniyakumari,8.0833,77.5667,27.05,78,0,3.18,IN,1680729531
476,Swakopmund,-22.6833,14.5333,18.52,78,63,3.23,NA,1680729532
477,Rosarito,32.3333,-117.0333,20.69,47,0,4.98,MX,1680729532
478,Tevriz,57.509,72.4042,1.07,93,53,2.48,RU,1680729533
479,Mataquescuintla,14.5292,-90.1842,25.97,28,47,2.11,GT,1680729533
480,Fereydun Kenar,36.6864,52.5225,15.98,64,29,3.25,IR,1680729534
481,Dolores,-36.3132,-57.6792,20.41,59,70,5.66,AR,1680729534
482,Copiapo,-27.3667,-70.3333,18.83,34,3,3.16,CL,1680729534
483,Limbang,4.75,115.0,26.06,97,47,0.69,MY,1680729534
484,Herat,34.5,62.0,13.37,31,91,4.43,AF,1680729534
485,Lethem,3.3803,-59.7968,34.03,52,20,7.2,GY,1680729534
486,Salazie,-21.0273,55.539,21.79,78,73,2.06,RE,1680729535
487,Tapes,-30.6733,-51.3958,21.85,64,100,5.56,BR,1680729535
488,Broome,42.2506,-75.833,20.43,75,20,7.72,US,1680729535
489,Santa Maria,-29.6842,-53.8069,23.93,57,100,5.36,BR,1680729535
490,Road Town,18.4167,-64.6167,27.05,88,40,3.6,VG,1680729536
491,Dillon,34.4166,-79.3712,31.81,43,11,4.56,US,1680729536
492,Gossas,14.4912,-16.0642,32.88,27,98,4.39,SN,1680729536
493,Salta,-24.7859,-65.4117,20.88,77,40,5.14,AR,1680729338
494,Gibara,21.1097,-76.1317,31.62,66,0,9.52,CU,1680729536
495,Camopi,3.1655,-52.3158,25.26,76,74,2.16,GF,1680729536
496,Chitipa,-9.7024,33.2697,16.64,98,100,1.81,MW,1680729537
497,Fulton,33.7668,-84.4499,30.32,51,75,4.63,US,1680729292
498,Abashiri,44.0213,144.2697,6.08,70,100,1.57,JP,1680729537
499,Menongue,-14.6585,17.691,17.32,85,91,1.96,AO,1680729538
500,Annamalainagar,11.4,79.7333,26.29,85,0,2.76,IN,1680729538
501,Pangody,65.85,74.4859,-13.68,95,99,4.43,RU,1680729538
502,Sola,-13.8833,167.55,27.25,74,100,0.8,VU,1680729538
503,Bagrami,34.4938,69.2743,8.0,78,2,1.2,AF,1680729539
504,Necochea,-38.5473,-58.7368,20.81,56,0,3.99,AR,1680729540
505,Barra Patuca,15.8,-84.2833,28.31,65,0,6.82,HN,1680729500
506,Gallup,35.5281,-108.7426,4.91,24,0,3.6,US,1680729408
507,Synya,65.3718,58.0387,-14.31,92,100,4.07,RU,1680729541
508,Moerai,-22.4333,-151.3333,26.61,79,100,3.9,PF,1680729542
509,Paranhos,-23.8928,-55.4311,20.11,97,100,1.34,BR,1680729542
510,Roald,62.5833,6.1333,5.05,87,0,2.57,NO,1680729543
511,Nizhnyaya Omka,55.4338,74.9426,2.25,67,76,3.98,RU,1680729543
512,Shubarkuduk,49.1447,56.4872,10.62,44,57,0.63,KZ,1680729543
513,Kaeo,-35.1,173.7833,15.74,94,100,3.61,NZ,1680729543
514,High Prairie,55.4334,-116.4858,4.67,45,60,1.08,CA,1680729316
515,Chumikan,54.7183,135.315,-8.39,90,42,2.46,RU,1680729544
516,Sioux Lookout,50.1001,-91.917,-6.96,79,100,4.63,CA,1680729544
517,Moussoro,13.6408,16.4901,31.61,11,54,5.17,TD,1680729544
518,Petropavlovsk-Kamchatskiy,53.0452,158.6483,-0.67,51,20,6.0,RU,1680729545
519,Florianopolis,-27.6146,-48.5012,22.57,72,100,4.12,BR,1680728870
520,Farmington,36.7281,-108.2187,6.54,15,0,3.13,US,1680729335
521,Talcahuano,-36.7167,-73.1167,13.82,94,75,5.66,CL,1680729309
522,Phetchabun,16.25,101.0833,26.88,38,30,0.46,TH,1680729545
523,Nanakuli,21.3906,-158.1547,27.97,57,40,4.63,US,1680729545
524,Sapernoye,60.7167,29.9505,0.84,92,100,2.84,RU,1680729546
525,Huilong,31.8111,121.655,10.52,87,93,3.16,CN,1680729546
526,Gizo,-8.103,156.8419,27.92,76,100,1.13,SB,1680729546
527,Saint-Gaudens,43.0833,0.6667,5.57,72,65,2.31,FR,1680729546
528,Haradok,55.4624,29.9816,4.48,93,93,4.75,BY,1680729546
529,Salym,60.0625,71.4789,0.69,99,100,1.08,RU,1680729547
530,Altus,34.6381,-99.334,17.21,21,0,8.23,US,1680729547
531,Pimentel,-6.8367,-79.9342,31.16,62,20,5.14,PE,1680729547
532,Karaton,-6.3424,106.1045,21.8,89,67,1.94,ID,1680729547
533,Kifri,34.6959,44.9661,20.07,36,31,1.14,IQ,1680729548
534,Damaturu,11.747,11.9608,29.02,8,100,4.23,NG,1680729548
535,Urengoy,65.9667,78.3667,-11.13,97,100,4.38,RU,1680729548
536,Qianan,44.9932,124.0581,2.63,20,44,2.26,CN,1680729316
537,Maiduguri,11.8464,13.1603,30.71,8,100,4.47,NG,1680729549
538,Pundaguitan,6.3711,126.1689,26.19,80,95,2.11,PH,1680729549
539,Champerico,14.3,-91.9167,36.3,60,3,6.85,GT,1680729549
540,Hovd,48.0056,91.6419,-3.75,45,0,1.66,MN,1680729549
541,Kharan,28.5833,65.4167,21.53,15,0,5.73,PK,1680729549
542,Tezu,27.9167,96.1667,18.08,76,82,1.55,IN,1680729550
543,Tigil,57.8,158.6667,-5.01,87,100,6.41,RU,1680729550
544,Buala,-8.145,159.5921,27.76,78,100,1.17,SB,1680729550
545,Porto Belo,-27.1578,-48.5531,23.98,80,100,6.1,BR,1680729550
546,Lianzhou,24.7811,112.3825,16.06,92,100,1.61,CN,1680729550
547,San Julian,21.0167,-102.1667,28.77,11,72,6.26,MX,1680729551
548,Vilyuysk,63.7553,121.6247,-31.09,100,30,2.3,RU,1680729551
549,Tahta,26.7693,31.5021,20.34,25,0,4.01,EG,1680729551
550,Sao Filipe,14.8961,-24.4956,23.05,79,97,5.97,CV,1680729551
551,Ankang,32.68,109.0172,10.35,80,100,1.61,CN,1680729551
552,Bintulu,3.1667,113.0333,23.23,100,40,1.03,MY,1680729551
553,Lesogorskiy,61.0455,28.9294,1.46,93,99,2.93,RU,1680729552
