City_ID,City,Lat,Lng,Max Temp,Humidity,Cloudiness,Wind Speed,Country,Date
0,Hasaki,35.7333,140.8333,12.9,60,100,9.88,JP,1680434877
1,Port Alfred,-33.5906,26.891,24.54,82,0,4.47,ZA,1680434877
2,Kapaa,22.0752,-159.319,24.18,87,75,3.09,US,1680434877
3,Kavieng,-2.5744,150.7967,27.65,79,72,4.58,PG,1680434877
4,Avarua,-21.2078,-159.775,26.03,78,75,3.09,CK,1680434877
5,Hobart,-42.8794,147.3294,13.92,74,20,3.6,AU,1680434865
6,Kwidzyn,53.7249,18.9311,5.93,76,100,8.57,PL,1680434877
7,Rikitea,-23.1203,-134.9692,26.65,81,58,6.36,PF,1680434878
8,Castro,-24.7911,-50.0119,15.48,87,91,2.91,BR,1680434878
9,Cherskiy,68.75,161.3,-34.89,100,24,1.6,RU,1680434878
10,Djambala,-2.5447,14.7533,28.06,57,40,2.71,CG,1680434878
11,Cape Town,-33.9258,18.4232,26.18,67,0,4.63,ZA,1680434675
12,Puerto Del Rosario,28.5004,-13.8627,20.86,73,20,8.75,ES,1680434672
13,Sola,-13.8833,167.55,28.41,76,89,5.21,VU,1680434879
14,Olot,42.181,2.4901,18.73,21,0,3.13,ES,1680434879
15,Hermanus,-34.4187,19.2345,24.33,64,0,4.96,ZA,1680434879
16,Faya,18.3851,42.4509,21.29,53,95,5.58,SA,1680434879
17,Presidente Medici,-11.1753,-61.9014,21.74,96,85,0.9,BR,1680434880
18,Cockburn Town,21.4612,-71.1419,24.91,69,0,8.37,TC,1680434678
19,Hithadhoo,-0.6,73.0833,28.11,72,92,4.76,MV,1680434880
20,Sabang,5.8933,95.3214,28.35,69,100,3.12,ID,1680434880
21,Bambous Virieux,-20.3428,57.7575,29.56,74,75,3.6,MU,1680434880
22,Quatre Cocos,-20.2078,57.7625,29.49,74,75,4.36,MU,1680434880
23,Hirara,24.8,125.2833,20.92,73,40,9.26,JP,1680434880
24,Bergen,60.392,5.328,10.08,44,75,4.12,NO,1680434880
25,Jamestown,42.097,-79.2353,-2.49,73,0,3.6,US,1680434650
26,Erzin,36.9559,36.2,16.07,75,95,4.47,TR,1680434881
27,Gamba,-2.65,10.0,29.79,65,85,4.22,GA,1680434881
28,Port Hedland,-20.3167,118.5667,30.29,65,22,6.78,AU,1680434672
29,Ushuaia,-54.8,-68.3,2.81,87,0,0.51,AR,1680434846
30,Hobyo,5.3505,48.5268,30.77,63,60,4.69,SO,1680434882
31,Sabla,12.7525,4.7077,37.54,6,47,5.48,NG,1680434882
32,Kidal,18.4411,1.4078,33.37,5,12,7.63,ML,1680434882
33,Lenine,45.2986,35.7771,12.04,58,100,9.61,UA,1680434883
34,Ahuimanu,21.4447,-157.8378,23.84,85,100,2.06,US,1680434883
35,Naron,43.5167,-8.1528,15.34,56,80,3.18,ES,1680434883
36,Puerto Ayora,-0.7393,-90.3518,24.75,98,47,0.45,EC,1680434884
37,Sorland,67.667,12.6934,2.92,64,45,3.62,NO,1680434884
38,East London,-33.0153,27.9116,26.52,69,0,7.2,ZA,1680434878
39,Pangody,65.85,74.4859,1.1,92,100,7.5,RU,1680434885
40,Albany,42.6001,-73.9662,0.65,67,47,2.68,US,1680434656
41,Ilulissat,69.2167,-51.1,-16.99,78,0,1.54,GL,1680434885
42,Mataura,-46.1927,168.8643,5.64,97,42,0.97,NZ,1680434886
43,Iqaluit,63.7506,-68.5145,-27.15,76,40,0.0,CA,1680434886
44,Mitchell,43.7094,-98.0298,5.99,64,0,3.09,US,1680434887
45,Garbolovo,60.3413,30.4955,-0.27,74,56,5.41,RU,1680434887
46,Punta Arenas,-53.15,-70.9167,4.06,75,0,5.66,CL,1680434887
47,College,64.8569,-147.8028,-4.03,84,100,2.06,US,1680434887
48,Mahebourg,-20.4081,57.7,29.58,74,75,3.6,MU,1680434888
49,Esperance,-33.8667,121.9,19.39,77,34,4.5,AU,1680434888
50,Yellowknife,62.456,-114.3525,-15.71,78,100,3.6,CA,1680434598
51,Yulara,-25.2406,130.9889,24.0,54,81,4.83,AU,1680434889
52,Hervey Bay,-25.2986,152.8535,22.42,73,91,3.66,AU,1680434889
53,Metes,46.1,23.4167,11.63,71,97,2.92,RO,1680434889
54,Guangshui,31.6199,113.9978,22.16,64,100,5.84,CN,1680434890
55,Butaritari,3.0707,172.7902,27.51,76,85,3.65,KI,1680434890
56,Bengkulu,-3.8004,102.2655,25.7,86,100,2.62,ID,1680434891
57,Hilo,19.7297,-155.09,22.38,89,40,2.06,US,1680434891
58,Atuona,-9.8,-139.0333,27.09,77,100,6.24,PF,1680434892
59,Fethiye,36.6217,29.1164,18.93,55,91,4.43,TR,1680434892
60,Jibuti,11.5,42.5,31.46,41,73,0.5,DJ,1680434893
61,Bredasdorp,-34.5322,20.0403,24.17,56,11,4.56,ZA,1680434893
62,Saint-Philippe,-21.3585,55.7679,28.77,75,94,3.68,RE,1680434893
63,Lappeenranta,61.0587,28.1887,0.99,51,40,4.63,FI,1680434893
64,Paamiut,61.994,-49.6678,-4.17,61,77,5.69,GL,1680434894
65,Busselton,-33.65,115.3333,19.67,73,10,7.07,AU,1680434894
66,Longyearbyen,78.2186,15.6401,-8.09,93,100,2.06,SJ,1680434894
67,Xingcheng,40.6167,120.7167,10.61,41,100,2.95,CN,1680434895
68,Bluff,-46.6,168.3333,12.12,66,39,6.46,NZ,1680434895
69,Comodoro Rivadavia,-45.8667,-67.5,8.92,57,0,4.63,AR,1680434896
70,Wanaka,-44.7,169.15,8.95,87,97,0.89,NZ,1680434896
71,Namibe,-15.1961,12.1522,27.97,66,12,2.82,AO,1680434897
72,Lebu,-37.6167,-73.65,12.54,89,95,6.27,CL,1680434897
73,Mar Del Plata,-38.0023,-57.5575,15.61,82,0,1.79,AR,1680434669
74,Saskylakh,71.9167,114.0833,-5.04,91,100,5.54,RU,1680434898
75,Vilhena,-12.7406,-60.1458,21.12,100,75,1.03,BR,1680434898
76,Chumikan,54.7183,135.315,-1.71,90,100,2.21,RU,1680434899
77,New Norfolk,-42.7826,147.0587,13.73,64,35,1.34,AU,1680434899
78,Tommot,58.9564,126.2925,-16.79,94,100,0.19,RU,1680434899
79,Barrow,71.2906,-156.7887,-18.99,78,20,8.23,US,1680434702
80,Tres Arroyos,-38.3739,-60.2798,12.64,58,100,4.67,AR,1680434879
81,Lethem,3.3803,-59.7968,24.1,76,80,5.13,GY,1680434900
82,Duki,30.1541,68.5728,23.49,37,0,5.89,PK,1680434901
83,Coquimbo,-29.9533,-71.3436,14.85,100,100,1.54,CL,1680434902
84,Beli Manastir,45.77,18.6036,15.87,56,95,4.75,HR,1680434903
85,Bethel,41.3712,-73.414,5.52,66,70,1.34,US,1680434903
86,Brest,52.1,23.7,4.98,87,100,5.0,BY,1680434904
87,Fort Nelson,58.8053,-122.7002,-6.23,86,100,2.57,CA,1680434904
88,Suez,29.9737,32.5263,25.36,20,0,3.03,EG,1680434904
89,Vaini,-21.2,-175.2,25.09,88,20,3.09,TO,1680434905
90,Juru,5.312,100.4423,28.99,78,20,1.54,MY,1680434905
91,Teguldet,57.3064,88.1667,-3.91,72,100,3.75,RU,1680434905
92,Ceyranbatan,40.5408,49.6597,8.84,75,100,0.36,AZ,1680434906
93,Clyde River,70.4692,-68.5914,-29.87,76,0,3.6,CA,1680434906
94,Fairbanks,64.8378,-147.7164,-4.02,85,100,2.06,US,1680434784
95,Carnarvon,-24.8667,113.6333,23.9,78,81,8.02,AU,1680434907
96,Daru,-9.0763,143.2092,27.15,79,35,3.23,PG,1680434908
97,Changping,40.2186,116.2197,15.8,39,99,0.99,CN,1680434908
98,Kadoma,34.7333,135.5833,15.97,41,75,8.23,JP,1680434909
99,Nikolskoye,59.7035,30.7861,1.0,90,95,4.82,RU,1680434909
100,Fortuna,40.5982,-124.1573,7.19,93,77,0.45,US,1680434911
101,Koscierzyna,54.1223,17.9812,3.96,62,96,7.88,PL,1680434912
102,Salalah,17.0151,54.0924,31.05,62,40,6.17,OM,1680434913
103,Pevek,69.7008,170.3133,-31.61,100,98,0.45,RU,1680434914
104,Tasiilaq,65.6145,-37.6368,-0.91,79,80,1.54,GL,1680434914
105,Mutoko,-17.397,32.2268,25.46,40,70,4.23,ZW,1680434915
106,Ribeira Grande,38.5167,-28.7,16.54,63,40,10.8,PT,1680434915
107,Okhotsk,59.3833,143.3,-6.52,84,85,3.63,RU,1680434915
108,Zabol,32.25,67.25,18.4,32,29,9.71,AF,1680434916
109,Port Lincoln,-34.7333,135.8667,15.57,63,16,4.81,AU,1680434917
110,Lagoa,39.05,-27.9833,13.71,72,69,13.39,PT,1680434917
111,Komsomolets,53.7453,62.0708,3.0,93,5,2.5,KZ,1680434918
112,Cremona,45.2333,9.9333,18.52,53,83,0.52,IT,1680434918
113,Waingapu,-9.6567,120.2641,26.29,84,100,0.63,ID,1680434919
114,Upernavik,72.7868,-56.1549,-30.4,99,86,2.63,GL,1680434771
115,Port Augusta,-32.5,137.7667,17.22,46,1,4.59,AU,1680434919
116,Solnechnyy,50.7214,136.6319,1.98,92,70,1.71,RU,1680434920
117,Sungaipenuh,-2.0833,101.3833,20.1,92,68,1.24,ID,1680434920
118,Ariquemes,-9.9133,-63.0408,21.92,100,100,0.58,BR,1680434920
119,Boyolangu,-8.1181,111.8935,25.06,87,73,2.35,ID,1680434920
120,Saint George,37.1041,-113.5841,6.33,61,0,0.0,US,1680434921
121,Nanortalik,60.1432,-45.2371,-3.05,73,100,2.08,GL,1680434921
122,Saldanha,-33.0117,17.9442,19.03,73,1,1.56,ZA,1680434921
123,Qaanaaq,77.484,-69.3632,-23.88,57,74,2.62,GL,1680434922
124,Lufilufi,-13.8745,-171.5986,28.12,70,5,2.78,WS,1680434922
125,Constitucion,-35.3333,-72.4167,14.64,84,31,2.84,CL,1680434923
126,Paso De Carrasco,-34.8603,-56.0522,16.08,85,0,0.51,UY,1680434924
127,Mount Gambier,-37.8333,140.7667,10.27,84,22,1.67,AU,1680434924
128,Anadyr,64.75,177.4833,-18.72,78,0,5.0,RU,1680434925
129,Tawang,27.5833,91.8667,5.82,84,91,2.11,IN,1680434925
130,Ancud,-41.8697,-73.8203,10.31,83,94,1.64,CL,1680434926
131,Looc,12.2605,121.9926,26.8,78,100,2.04,PH,1680434926
132,Serramanna,39.4244,8.9244,12.01,94,40,5.66,IT,1680434926
133,Hualmay,-11.0964,-77.6139,23.45,90,81,3.56,PE,1680434927
134,Chokurdakh,70.6333,147.9167,-26.82,99,15,4.01,RU,1680434927
135,Egvekinot,66.3167,-179.1667,-22.27,81,22,3.1,RU,1680434928
136,Nueve De Julio,-35.4444,-60.8831,16.65,70,100,1.79,AR,1680434928
137,Hofn,64.2539,-15.2082,4.22,61,41,2.33,IS,1680434928
138,Bronnoysund,65.4625,12.1997,4.0,41,0,5.36,NO,1680434929
139,Souillac,-20.5167,57.5167,28.21,74,75,3.6,MU,1680434929
140,Pangoa,-12.1167,-73.0,18.38,97,96,1.33,PE,1680434930
141,Arman,59.7,150.1667,-2.49,98,100,0.73,RU,1680434930
142,Dikson,73.5069,80.5464,-18.45,95,100,5.7,RU,1680434930
143,Torbay,47.6666,-52.7314,4.76,96,100,8.23,CA,1680434931
144,Ponta Do Sol,32.6667,-17.1,25.4,68,0,2.24,PT,1680434931
145,Panguna,-6.3164,155.4848,20.51,97,99,0.88,PG,1680434932
146,Agadir,30.4202,-9.5982,23.25,50,0,2.77,MA,1680434933
147,Wageningen,51.9667,5.6667,8.94,70,20,7.72,NL,1680434933
148,Airai,-8.9266,125.4092,16.44,96,95,0.86,TL,1680434934
149,Lata,40.1629,-8.3327,17.82,35,8,1.96,PT,1680434934
150,Springdale,36.1867,-94.1288,6.42,71,0,3.09,US,1680434807
151,Aiken,33.5835,-81.5998,13.16,66,0,1.54,US,1680434936
152,Gulu,2.7746,32.299,29.59,41,55,1.87,UG,1680434936
153,San Pedro,14.35,121.0167,30.2,73,40,3.6,PH,1680434937
154,Kutum,14.2,24.6667,29.47,8,24,4.18,SD,1680434938
155,Valparaiso,-33.0393,-71.6273,18.33,58,0,0.0,CL,1680434938
156,Kudahuvadhoo,2.6708,72.8944,28.4,69,91,3.14,MV,1680434939
157,Vila Franca Do Campo,37.7167,-25.4333,17.23,72,66,7.27,PT,1680434939
158,Garowe,8.4054,48.4845,33.52,34,12,1.29,SO,1680434940
159,Sao Raimundo Das Mangabeiras,-7.0219,-45.4811,24.1,83,88,3.24,BR,1680434941
160,Mahibadhoo,3.7833,72.9667,28.51,68,5,3.23,MV,1680434941
161,Biak,-0.9131,122.8766,24.9,84,99,3.65,ID,1680434942
162,La Palma,33.8464,-118.0467,12.62,89,100,0.89,US,1680434943
163,Thompson,55.7435,-97.8558,-20.91,84,75,4.12,CA,1680434793
164,Kodiak,57.79,-152.4072,-2.27,59,0,3.09,US,1680434944
165,Paita,-5.0892,-81.1144,25.94,81,93,1.08,PE,1680434944
166,Uruzgan,32.8333,66.0,18.07,37,56,5.15,AF,1680434945
167,Simpang Empat,4.95,100.6333,25.82,87,96,0.46,MY,1680434946
168,Acarau,-2.8856,-40.12,25.64,83,78,1.9,BR,1680434947
169,Bahia Blanca,-38.7196,-62.2724,17.68,52,52,4.92,AR,1680434947
170,Cantagallo,7.376,-73.9196,25.32,98,76,1.21,CO,1680434947
171,Cidreira,-30.1811,-50.2056,17.98,72,68,3.27,BR,1680434947
172,Zaraza,9.3503,-65.3245,23.52,81,88,1.76,VE,1680434948
173,Westport,41.1415,-73.3579,6.22,64,75,5.14,US,1680434948
174,Florianopolis,-27.6146,-48.5012,19.67,74,0,3.09,BR,1680434886
175,Talakan,50.3167,130.3667,10.8,54,79,2.66,RU,1680434949
176,Broome,42.2506,-75.833,-2.13,77,99,4.02,US,1680434949
177,Ahipara,-35.1667,173.1667,16.82,92,59,2.92,NZ,1680434949
178,Chernyshevskiy,63.0128,112.4714,-8.75,85,94,6.89,RU,1680434949
179,Codrington,-38.2667,141.9667,12.22,78,15,1.97,AU,1680434950
180,Tuktoyaktuk,69.4541,-133.0374,-24.14,100,38,3.79,CA,1680434950
181,Arraial Do Cabo,-22.9661,-42.0278,25.92,61,75,4.63,BR,1680434651
182,Salta,-24.7859,-65.4117,18.33,94,100,0.51,AR,1680434951
183,Baoding,38.8511,115.4903,18.8,39,100,1.6,CN,1680434811
184,Steamboat Springs,40.485,-106.8317,2.77,54,40,1.34,US,1680434952
185,Buala,-8.145,159.5921,26.76,82,95,1.23,SB,1680434952
186,Kalas,18.1667,74.8,34.07,16,82,2.25,IN,1680434952
187,Atambua,-9.1061,124.8925,23.67,90,100,0.98,ID,1680434952
188,Blagoyevo,63.3667,47.9167,0.8,88,99,1.65,RU,1680434953
189,Mehran,33.1222,46.1646,18.64,27,0,8.18,IR,1680434953
190,Rio Grande,-32.035,-52.0986,17.06,74,52,2.61,BR,1680434953
191,Nanyamba,-10.6833,39.8333,28.69,65,100,3.47,TZ,1680434954
192,Jumla,29.2747,82.1838,10.4,69,88,2.58,NP,1680434955
193,Kuusamo,65.9667,29.1833,-2.98,50,75,4.63,FI,1680434955
194,Port Elizabeth,-33.918,25.5701,26.84,63,0,5.14,ZA,1680434955
195,Tuatapere,-46.1333,167.6833,9.18,79,43,1.98,NZ,1680434955
196,Loudi,27.7344,111.9944,24.43,78,92,4.83,CN,1680434955
197,Bodmin,50.4715,-4.7243,13.02,81,75,5.14,GB,1680434956
198,Champerico,14.3,-91.9167,26.09,79,99,4.89,GT,1680434956
199,Sitka,57.0531,-135.33,0.94,80,20,0.0,US,1680434956
200,Isangel,-19.55,169.2667,27.12,83,51,1.91,VU,1680434957
201,Onega,63.9061,38.1404,0.12,81,33,4.11,RU,1680434957
202,Port Hardy,50.6996,-127.4199,3.0,100,40,1.03,CA,1680434957
203,Mandapam,9.2833,79.1167,28.97,74,3,6.09,IN,1680434957
204,Komatsu,36.4026,136.4509,11.02,76,40,8.75,JP,1680434957
205,Provideniya,64.3833,-173.3,-18.93,89,40,2.72,RU,1680434958
206,Labuhan,-6.8844,112.2051,27.51,73,99,0.4,ID,1680434958
207,Halifax,44.6453,-63.5724,6.36,96,90,4.63,CA,1680434695
208,Okitipupa,6.5047,4.7839,31.51,58,90,2.33,NG,1680434959
209,Talnakh,69.4865,88.3972,-4.43,96,100,5.15,RU,1680434959
210,Necochea,-38.5473,-58.7368,13.49,50,99,4.2,AR,1680434959
211,Pemba,-12.974,40.5178,31.39,62,75,3.6,MZ,1680434959
212,Porbandar,21.6422,69.6093,27.69,54,1,5.73,IN,1680434961
213,Haines Junction,60.7522,-137.5108,-9.03,57,93,2.06,CA,1680434961
214,Hojai,26.0,92.8667,25.81,57,63,3.3,IN,1680434961
215,Khani,41.9563,42.9566,14.76,41,5,3.51,GE,1680434962
216,Roma,43.2128,-75.4557,-3.36,57,0,7.2,US,1680434784
217,Polunochnoye,60.8697,60.4153,5.01,80,100,3.0,RU,1680434962
218,Cabo San Lucas,22.8909,-109.9124,23.06,55,100,4.48,MX,1680434963
219,Grindavik,63.8424,-22.4338,5.97,70,75,4.63,IS,1680434834
220,Atar,20.5169,-13.0499,35.44,4,0,8.94,MR,1680434963
221,Plouzane,48.3833,-4.6167,12.03,71,40,5.66,FR,1680434963
222,Srednekolymsk,67.45,153.6833,-30.23,100,19,1.49,RU,1680434964
223,Campo Verde,-20.4167,-54.0667,22.09,85,0,0.9,BR,1680434964
224,Poum,-20.2333,164.0167,26.63,73,4,5.34,NC,1680434964
225,Yibin,28.7667,104.6238,22.41,70,90,2.15,CN,1680434965
226,Khatanga,71.9667,102.5,-4.62,95,100,4.09,RU,1680434965
227,Kahului,20.8947,-156.47,23.25,84,0,2.06,US,1680434965
228,Hovd,48.0056,91.6419,-9.5,24,100,6.64,MN,1680434966
229,Geraldton,-28.7667,114.6,23.23,78,0,6.17,AU,1680434674
230,Katangli,51.7102,143.2326,-1.21,97,89,1.16,RU,1680434966
231,Vostok,46.4856,135.8833,2.39,85,100,1.99,RU,1680434967
232,Arlit,18.7369,7.3853,32.23,3,32,2.22,NE,1680434967
233,Grand Gaube,-20.0064,57.6608,29.65,65,66,3.13,MU,1680434967
234,Avenal,36.0041,-120.129,7.76,87,2,2.19,US,1680434967
235,Shimoda,34.6667,138.95,12.28,79,100,9.87,JP,1680434968
236,Shieli,44.1667,66.75,19.15,12,94,6.92,KZ,1680434968
237,Kaitangata,-46.2817,169.8464,7.21,93,30,2.38,NZ,1680434969
238,Georgetown,5.4112,100.3354,28.97,76,20,1.54,MY,1680434846
239,Hami,42.8,93.45,8.33,12,31,4.84,CN,1680434969
240,Brownsville,25.9018,-97.4975,23.97,96,75,4.12,US,1680434835
241,Rapid Valley,44.0625,-103.1463,5.42,53,0,10.73,US,1680434969
242,Chuy,-33.6971,-53.4616,14.87,79,80,1.72,UY,1680434970
243,Taoudenni,22.6783,-3.9836,34.52,5,0,4.55,ML,1680434970
244,Miri,4.4148,114.0089,26.08,89,40,2.06,MY,1680434970
245,Rorvik,64.8621,11.2373,3.06,44,0,4.63,NO,1680434970
246,Bathsheba,13.2167,-59.5167,27.34,69,40,10.29,BB,1680434971
247,Nago,26.5881,127.9761,21.24,74,1,6.87,JP,1680434971
248,Lodja,-3.4833,23.4333,29.45,54,97,1.3,CD,1680434971
249,Touros,-5.1989,-35.4608,26.36,83,97,3.43,BR,1680434973
250,Kenai,60.5544,-151.2583,-0.95,71,0,9.77,US,1680434973
251,Inuvik,68.3499,-133.7218,-19.52,84,40,3.6,CA,1680434973
252,Chabahar,25.2919,60.643,26.68,58,51,8.16,IR,1680434973
253,Fulton,33.7668,-84.4499,9.18,60,0,5.66,US,1680434819
254,Bayan,46.0833,127.4,16.96,21,77,2.89,CN,1680434973
255,Abaza,52.655,90.0928,-5.21,54,40,2.27,RU,1680434974
256,Leshukonskoye,64.8989,45.7622,-0.86,82,84,2.44,RU,1680434974
257,Tateyama,34.9833,139.8667,12.72,75,100,9.64,JP,1680434974
258,Lompoc,34.6391,-120.4579,8.85,84,100,8.94,US,1680434974
259,Leningradskiy,69.3833,178.4167,-22.63,91,96,7.02,RU,1680434975
260,Jalna,19.8333,75.8833,34.92,12,38,2.78,IN,1680434975
261,Catamarca,-28.4696,-65.7852,19.77,72,52,0.45,AR,1680434975
262,Panlaitan,12.1191,119.8486,27.88,75,63,2.2,PH,1680434977
263,Chimbote,-9.0853,-78.5783,24.71,84,93,2.69,PE,1680434696
264,Wencheng,33.0559,113.7978,21.03,56,100,5.33,CN,1680434977
265,Karratha,-20.7377,116.8463,29.36,58,95,3.56,AU,1680434977
266,Macapa,0.0389,-51.0664,24.99,100,20,3.6,BR,1680434683
267,Faanui,-16.4833,-151.75,27.73,74,39,2.99,PF,1680434978
268,Yar-Sale,66.8333,70.8333,-0.37,88,76,3.44,RU,1680434978
269,Zvishavane,-20.3267,30.0665,27.73,38,30,4.89,ZW,1680434978
270,Sisimiut,66.9395,-53.6735,-16.35,73,88,2.19,GL,1680434979
271,San Patricio,28.017,-97.5169,24.05,94,100,3.37,US,1680434979
272,Victoria,22.2855,114.1577,22.03,91,52,0.45,HK,1680434979
273,Sambava,-14.2667,50.1667,28.71,70,77,4.26,MG,1680434979
274,Iskateley,67.6803,53.1512,-4.98,92,15,5.72,RU,1680434979
275,Ranau,5.9538,116.6641,21.56,97,100,0.56,MY,1680434979
276,Katsuura,35.1333,140.3,12.68,74,100,10.12,JP,1680434980
277,Do Gonbadan,30.3586,50.7981,18.05,29,0,4.12,IR,1680434980
278,Rypefjord,70.6333,23.6667,-0.74,74,100,2.57,NO,1680434980
279,Verkhovye,52.8119,37.2425,9.06,61,100,6.28,RU,1680434981
280,Komsomolskiy,40.4272,71.7189,24.4,25,98,4.12,UZ,1680434981
281,Kenora,49.8167,-94.4337,-2.46,39,75,5.14,CA,1680434910
282,Marsh Harbour,26.5412,-77.0636,23.69,84,33,5.3,BS,1680434981
283,Kaeo,-35.1,173.7833,15.76,93,83,1.92,NZ,1680434981
284,Satun,6.8333,100.0,29.0,76,100,1.42,TH,1680434982
285,Porteirinha,-15.7433,-43.0283,26.38,37,42,0.78,BR,1680434718
286,Burla,21.5,83.8667,33.41,19,50,3.2,IN,1680434982
287,Kaduqli,11.0167,29.7167,37.15,6,42,3.74,SD,1680434983
288,Ushibuka,32.1906,130.0228,16.91,60,7,5.31,JP,1680434983
289,Norman Wells,65.282,-126.8329,-20.98,77,75,1.54,CA,1680434984
290,Akyab,20.15,92.9,27.85,68,90,4.89,MM,1680434984
291,Glendive,47.1053,-104.7125,2.79,69,0,6.17,US,1680434984
292,Aklavik,68.2191,-135.0107,-23.59,99,89,1.73,CA,1680434984
293,Tamandare,-8.7597,-35.1047,26.84,78,83,0.2,BR,1680434985
294,Brekstad,63.687,9.6654,3.33,48,0,7.72,NO,1680434985
295,Jaciara,-15.9653,-54.9683,22.6,83,6,0.46,BR,1680434985
296,Ostrovnoy,68.0531,39.5131,-2.61,68,100,8.01,RU,1680434986
297,Divinopolis,-20.1389,-44.8839,20.21,84,84,3.55,BR,1680434986
298,Belaya Gora,68.5333,146.4167,-28.49,100,11,2.67,RU,1680434986
299,Povenets,62.8487,34.8262,0.12,84,86,5.37,RU,1680434987
300,Broken Hill,-31.95,141.4333,15.82,33,0,3.46,AU,1680434987
301,Svobodnyy,51.4,128.1333,8.05,73,31,4.73,RU,1680434987
302,Lorengau,-2.0226,147.2712,27.01,79,100,1.29,PG,1680434987
303,Wairoa,-39.0333,177.3667,16.97,87,24,0.45,NZ,1680434987
304,Moerai,-22.4333,-151.3333,25.09,78,99,6.56,PF,1680434987
305,Corpus Christi,27.8006,-97.3964,25.01,88,100,4.63,US,1680434782
306,Te Anau,-45.4167,167.7167,5.93,85,5,0.03,NZ,1680434988
307,Trairi,-3.2778,-39.2689,23.33,96,91,1.79,BR,1680434925
308,Plast,54.3691,60.8136,5.46,63,4,4.14,RU,1680434988
309,Chino Valley,34.7575,-112.4538,7.13,43,0,4.12,US,1680434791
310,La Libertad,-2.2333,-80.9,23.81,94,100,3.6,EC,1680434989
311,Huinan,42.6225,126.2614,17.01,22,30,2.24,CN,1680434989
312,Eyl,7.9803,49.8164,30.9,56,30,4.92,SO,1680434989
313,Santa Cruz,-17.8,-63.1667,22.03,83,20,1.54,BO,1680434879
314,Hambantota,6.1241,81.1185,30.19,79,40,2.06,LK,1680434989
315,Samarai,-10.6167,150.6667,28.29,77,93,4.83,PG,1680434989
316,Bonavista,48.6499,-53.1147,-0.03,97,100,9.2,CA,1680434990
317,Mirnyy,62.5353,113.9611,-7.09,34,67,4.92,RU,1680434990
318,Wajima,37.4,136.9,9.43,78,29,7.09,JP,1680434990
319,Guerrero Negro,27.9769,-114.0611,12.63,87,13,5.14,MX,1680434990
320,Cangucu,-31.395,-52.6756,14.56,80,45,0.55,BR,1680434990
321,Curuca,-0.7289,-47.8481,23.69,96,98,0.81,BR,1680434990
322,Ciudad Barrios,13.7667,-88.2667,17.28,58,99,1.16,SV,1680434991
323,Alofi,-19.0595,-169.9187,24.94,94,31,4.12,NU,1680434991
324,Kahama,-3.8333,32.6,25.4,63,19,1.67,TZ,1680434991
325,Kokopo,-4.352,152.2633,25.58,84,98,1.74,PG,1680434991
326,Akcakoca,41.0866,31.1162,14.95,77,100,0.96,TR,1680434991
327,Pisco,-13.7,-76.2167,22.03,94,0,2.06,PE,1680434991
328,Shagonar,51.5333,92.8,-7.28,48,30,1.44,RU,1680434992
329,Olden,61.8364,6.8064,7.28,64,19,1.59,NO,1680434992
330,Verkhoyansk,67.5447,133.385,-13.05,85,95,4.36,RU,1680434992
331,Cartagena Del Chaira,1.3349,-74.8429,20.99,99,99,0.44,CO,1680434992
332,Avera,33.194,-82.5271,11.06,67,23,3.92,US,1680434992
333,Khandyga,62.6667,135.6,-14.76,97,100,1.98,RU,1680434992
334,Farah,32.5,62.5,25.72,22,49,6.23,AF,1680434992
335,Jiazi,22.8779,116.067,21.1,84,29,6.05,CN,1680434993
336,Basoko,1.2391,23.616,33.14,43,88,0.77,CD,1680434993
337,Atikokan,48.7555,-91.6216,-5.36,90,97,2.9,CA,1680434993
338,Iberia,29.9502,-91.7507,19.42,67,0,2.06,US,1680434993
339,Revda,56.801,59.9303,13.16,40,76,3.03,RU,1680434993
340,Rio Brilhante,-21.8019,-54.5464,21.99,85,0,1.66,BR,1680434779
341,Dauphin,51.1494,-100.0502,-5.92,99,100,2.57,CA,1680434994
342,San Cristobal,7.7669,-72.225,19.1,91,90,1.27,VE,1680434994
343,Aranos,-24.1333,19.1167,30.88,18,4,0.75,NA,1680434994
344,Las Lomas,8.4333,-82.4,22.67,94,20,1.03,PA,1680434994
345,Barra Patuca,15.8,-84.2833,24.52,74,25,4.03,HN,1680434994
346,Chapais,49.7834,-74.8492,-22.12,95,90,3.42,CA,1680434994
347,Namtsy,62.7161,129.6658,-12.71,91,100,2.69,RU,1680434995
348,Abu Samrah,35.3029,37.1841,18.48,50,91,7.18,SY,1680434995
349,Shizuishan,39.2333,106.7694,9.35,16,100,7.03,CN,1680434995
350,Sao Luiz Gonzaga,-28.4083,-54.9608,12.95,68,1,4.17,BR,1680434995
351,Canto Do Buriti,-8.11,-42.9444,24.43,64,100,2.03,BR,1680434995
352,Luena,-11.7833,19.9167,23.74,74,87,0.49,AO,1680434995
353,Otofuke,42.9917,143.2003,2.53,63,28,1.59,JP,1680434995
354,Ugoofaaru,5.6667,73.0,28.31,65,2,3.69,MV,1680434995
355,Tiarei,-17.5333,-149.3333,27.01,75,7,5.61,PF,1680434996
356,Adrar,20.5022,-10.0711,33.65,4,0,5.9,MR,1680434996
357,Griffith,41.5284,-87.4237,0.5,91,0,2.06,US,1680434996
358,Sergeyevka,53.88,67.4158,3.57,82,1,3.03,KZ,1680434996
359,Zharkent,44.1628,80.0,14.25,14,0,3.56,KZ,1680434996
360,Tshikapa,-6.4167,20.8,28.44,63,95,0.99,CD,1680434996
361,Dingle,10.9995,122.6711,25.95,74,78,2.17,PH,1680434997
362,Fare,-16.7,-151.0167,27.68,73,14,3.23,PF,1680434997
363,Peniche,39.3558,-9.3811,20.72,58,36,6.06,PT,1680434997
364,Kavaratti,10.5669,72.642,28.16,65,32,4.2,IN,1680434997
365,Katobu,-4.9408,122.5276,24.57,93,100,0.91,ID,1680434997
366,Maltahohe,-24.8333,16.9833,29.93,11,5,4.1,NA,1680434997
367,Klamath Falls,42.2249,-121.7817,0.95,69,100,4.63,US,1680434998
368,Nador,35.174,-2.9287,23.04,56,20,5.14,MA,1680434998
369,Denpasar,-8.65,115.2167,27.81,88,40,1.54,ID,1680434451
370,Port Macquarie,-31.4333,152.9167,16.61,83,19,0.77,AU,1680434998
371,Osorno,-40.5667,-73.15,11.17,87,100,3.09,CL,1680434998
372,Gagarin,55.5529,34.9954,6.36,88,100,5.58,RU,1680434998
373,Deputatskiy,69.3,139.9,-22.27,91,100,1.44,RU,1680434998
374,Tiksi,71.6872,128.8694,-12.9,78,95,13.63,RU,1680434998
375,Brae,60.3964,-1.353,7.55,75,88,6.58,GB,1680434999
376,Itarema,-2.9248,-39.9167,25.54,84,85,1.87,BR,1680434999
377,Cambridge,43.3601,-80.3127,-3.76,64,0,1.54,CA,1680434711
378,Pula,44.8683,13.8481,18.31,42,20,2.06,HR,1680434999
379,Kraskino,42.7114,130.7794,5.41,84,74,1.7,RU,1680434999
380,Bourail,-21.5667,165.4833,24.8,86,99,1.77,NC,1680434999
381,Sechura,-5.5569,-80.8222,26.55,75,90,2.88,PE,1680435000
382,Yenagoa,4.9247,6.2642,33.82,51,57,1.22,NG,1680435000
383,Neyshabur,36.2133,58.7958,15.96,17,61,4.28,IR,1680435000
384,Ziarat,30.3823,67.7282,12.06,54,5,4.91,PK,1680435001
385,Lengshuijiang,27.6881,111.4294,22.26,87,94,1.21,CN,1680435001
386,Moanda,-1.5575,13.2178,30.13,45,53,1.35,GA,1680435001
387,Tezu,27.9167,96.1667,18.45,82,98,2.9,IN,1680435002
388,Borgo San Dalmazzo,44.333,7.4858,15.27,38,81,3.3,IT,1680435004
389,Sandwick,60.0,-1.25,7.9,71,0,7.2,GB,1680435005
390,Sorkjosen,69.8,20.9333,0.0,55,20,2.06,NO,1680435006
391,Barrancas,10.9576,-72.7877,24.77,79,61,1.88,CO,1680435008
392,Tucurui,-3.7661,-49.6725,22.78,99,100,0.71,BR,1680435009
393,Korla,41.7597,86.1469,12.24,13,0,2.54,CN,1680435009
394,Navahrudak,53.6,25.8333,1.57,96,100,6.28,BY,1680435010
395,Tashara,55.5195,83.5094,-3.4,75,100,3.46,RU,1680435011
396,Zhigansk,66.7697,123.3711,-8.28,94,100,9.39,RU,1680435011
397,Hoquiam,46.9809,-123.8893,5.99,87,100,6.17,US,1680435013
398,Sitio Novo Do Tocantins,-5.5183,-47.4611,24.96,88,75,1.03,BR,1680435013
399,Boa Vista,2.8197,-60.6733,23.99,78,0,4.12,BR,1680435014
400,Loveland,40.3978,-105.075,12.58,26,0,6.69,US,1680434852
401,Panjab,34.388,67.0233,2.56,97,72,1.4,AF,1680435016
402,Zeya,53.75,127.2667,-3.61,90,53,2.23,RU,1680435016
403,Chibuto,-24.6867,33.5306,26.33,68,45,2.87,MZ,1680435016
404,Puerto Madero,14.7208,-92.4215,24.11,100,20,0.0,MX,1680435017
405,Mogadishu,2.0371,45.3438,30.93,74,40,4.12,SO,1680435017
406,Ukwa,21.9667,80.4667,31.45,15,13,3.24,IN,1680435018
407,Yarim,14.298,44.3779,19.02,48,52,4.92,YE,1680435018
408,Mindelo,16.8901,-24.9804,28.75,37,0,8.75,CV,1680435019
409,Oktyabrskoye,43.0645,44.7417,11.08,37,75,2.0,RU,1680435019
410,Ajdabiya,30.7554,20.2263,29.91,10,1,8.34,LY,1680435020
411,Sun Valley,39.5963,-119.776,6.38,64,75,7.72,US,1680434969
412,Kampot,10.6167,104.1833,29.03,67,30,4.32,KH,1680435020
413,San Joaquin,37.9333,-121.3011,12.07,87,0,0.0,US,1680435021
414,Belyy Yar,53.6039,91.3903,-2.06,29,0,1.0,RU,1680435021
415,Marawi,7.9986,124.2928,20.9,95,100,0.5,PH,1680435022
416,Tongchuan,35.0806,109.0897,10.9,96,100,1.76,CN,1680435022
417,Letka,59.6011,49.4232,5.17,92,96,2.67,RU,1680435023
418,Tari,12.4086,4.4914,38.83,6,60,3.82,NG,1680435024
419,Makakilo City,21.3469,-158.0858,23.18,83,0,2.06,US,1680435024
420,Port Blair,11.6667,92.75,30.02,66,40,2.06,IN,1680435025
421,Bilibino,68.0546,166.4372,-25.1,94,100,1.72,RU,1680435026
422,Gornopravdinsk,60.05,69.9,4.88,89,100,3.08,RU,1680435026
423,Lieksa,63.3167,30.0167,-0.44,83,94,5.41,FI,1680435028
424,Meulaboh,4.1363,96.1285,25.95,83,97,1.86,ID,1680435028
425,Cayenne,4.9333,-52.3333,26.02,83,20,4.12,GF,1680435028
426,Asyut,27.181,31.1837,25.1,13,0,4.14,EG,1680434741
427,Pietarsaari,63.65,22.6833,-1.67,88,69,5.65,FI,1680435029
428,Tabas,33.5959,56.9244,20.08,11,0,4.14,IR,1680435030
429,Antigonish,45.6169,-61.9986,4.64,99,100,2.39,CA,1680434746
430,Newark,40.7357,-74.1724,6.08,61,75,9.26,US,1680434772
431,Chicama,-7.8447,-79.1469,23.3,84,100,1.68,PE,1680435031
432,Luganville,-15.5333,167.1667,26.97,83,45,1.56,VU,1680435033
433,Husavik,66.0449,-17.3389,2.43,81,13,5.81,IS,1680435034
434,Burns Lake,54.2331,-125.7533,-10.32,99,62,0.58,CA,1680435009
435,Maragogi,-9.0122,-35.2225,27.72,74,92,0.33,BR,1680435034
436,Severnyy,50.677,36.5532,13.02,37,0,6.0,RU,1680435035
437,Yelizovo,53.1873,158.3805,-0.92,74,0,2.0,RU,1680435035
438,Male,4.1748,73.5089,30.97,70,20,3.09,MV,1680435036
439,Sena Madureira,-9.0656,-68.6569,23.0,97,100,0.2,BR,1680435036
440,Morehead,37.2711,-87.1764,1.66,99,0,0.0,US,1680435036
441,Pochutla,15.7432,-96.4661,23.23,70,60,1.32,MX,1680435037
442,Bubaque,11.2833,-15.8333,25.45,73,0,2.92,GW,1680435037
443,Mikuni,36.2171,136.1519,9.95,72,100,8.0,JP,1680435037
444,Tias,28.9611,-13.645,22.82,50,20,10.29,ES,1680435037
445,Manicore,-5.8092,-61.3003,22.73,99,100,1.03,BR,1680435038
446,Tashtyp,52.7939,89.8983,-7.59,74,29,1.95,RU,1680435038
447,Soyo,-6.1349,12.3689,30.46,63,57,3.46,AO,1680435038
448,Maningrida,-12.0667,134.2667,27.66,74,88,2.76,AU,1680435039
449,North Platte,41.1239,-100.7654,4.1,74,0,1.54,US,1680435040
450,Voyvozh,62.892,54.9635,0.21,100,100,1.28,RU,1680435040
451,Kunming,25.0389,102.7183,17.96,39,40,9.0,CN,1680435041
452,Rabo De Peixe,37.8,-25.5833,16.73,72,20,10.29,PT,1680435041
453,Simplicio Mendes,-7.8539,-41.9103,26.6,58,98,1.93,BR,1680435042
454,Seabra,-12.4186,-41.7703,25.66,54,4,2.09,BR,1680435042
455,Doka,13.5167,35.7667,37.22,7,70,4.75,SD,1680435043
456,Nyurba,63.2842,118.3319,-8.46,84,99,6.03,RU,1680435043
457,Tvoroyri,61.5556,-6.8111,7.15,75,19,3.33,FO,1680435043
458,Northam,51.0333,-4.2167,12.03,82,29,2.99,GB,1680435044
459,Jalu,29.0331,21.5482,28.88,9,0,6.4,LY,1680435044
460,Bathurst,-33.4166,149.5806,13.79,94,12,2.65,AU,1680435023
461,Pacific Grove,36.6177,-121.9166,11.06,86,100,1.79,US,1680435044
462,Talaya,61.3833,152.75,-13.72,96,100,2.61,RU,1680435045
463,Raudeberg,61.9875,5.1352,6.37,70,37,5.84,NO,1680435045
464,Dargaville,-35.9333,173.8833,16.68,90,57,2.53,NZ,1680435046
465,Nuuk,64.1835,-51.7216,-2.66,46,20,4.63,GL,1680435046
466,Amot,59.5714,7.9877,3.2,66,4,1.09,NO,1680435047
467,Guiglo,6.5456,-7.4966,35.01,42,35,1.15,CI,1680435047
468,Dubbo,-32.25,148.6167,17.07,55,19,4.12,AU,1680434810
469,Cascais,38.6979,-9.4215,20.84,58,0,7.15,PT,1680435047
470,Pemangkat,1.1667,108.9667,27.08,80,99,2.36,ID,1680435048
471,Yamada,39.4667,141.95,6.15,77,100,1.69,JP,1680435048
472,Ixtapa,20.7,-105.2,20.13,76,75,1.12,MX,1680435048
473,Roald,62.5833,6.1333,9.07,57,20,2.57,NO,1680435048
474,Eureka,40.8021,-124.1637,7.34,93,99,0.45,US,1680434965
475,Panaba,21.2833,-88.2667,21.08,97,7,2.86,MX,1680435048
476,Nong Han,17.3608,103.1053,37.23,30,79,3.71,TH,1680435048
477,Pangnirtung,66.1451,-65.7125,-15.05,73,100,2.25,CA,1680435049
478,Laguna,38.421,-121.4238,11.16,89,36,0.45,US,1680434767
479,Jiquilisco,13.3167,-88.5833,23.89,52,95,1.92,SV,1680435049
480,Panama City,8.9936,-79.5197,26.02,81,0,4.12,PA,1680434875
481,Okha,53.5739,142.9478,-1.65,96,46,3.01,RU,1680435049
482,Xam Nua,20.4197,104.0439,24.8,42,61,1.96,LA,1680435049
483,Praia,14.9215,-23.5087,34.3,10,0,8.75,CV,1680435049
484,Olafsvik,64.8945,-23.7142,4.46,67,93,6.31,IS,1680435050
485,Shelburne,44.0787,-80.2041,-5.69,72,58,2.78,CA,1680435050
486,Nalut,30.3333,10.85,28.65,11,0,9.64,LY,1680435050
487,Eskilstuna,59.3666,16.5077,4.88,52,54,4.71,SE,1680435050
488,Nemuro,43.3236,145.575,0.79,72,0,7.8,JP,1680435050
489,Concepcion Del Oro,24.6333,-101.4167,12.13,92,71,1.55,MX,1680435050
490,Port-Gentil,-0.7193,8.7815,29.98,74,40,5.14,GA,1680435051
491,Maceio,-9.6658,-35.7353,27.69,78,40,1.03,BR,1680434875
492,Alice Springs,-23.7,133.8833,23.45,52,100,4.63,AU,1680435051
493,Bagan,54.1001,77.6646,-0.43,67,11,2.0,RU,1680435051
494,Mamit,23.9333,92.4833,18.37,85,68,0.56,IN,1680435051
495,Ouagadougou,12.3642,-1.5383,36.07,11,84,4.12,BF,1680435052
496,Portobelo,9.55,-79.65,24.5,86,81,6.01,PA,1680435052
497,Santiago,-33.4569,-70.6483,19.36,41,20,2.57,CL,1680434881
498,Hun,29.1268,15.9477,32.27,7,0,8.3,LY,1680435053
499,Cape Canaveral,28.4058,-80.6048,22.21,90,0,4.12,US,1680435049
500,Uvat,59.1433,68.8953,6.35,79,100,3.44,RU,1680435053
501,Korcula,42.9622,17.1369,14.32,69,99,4.14,HR,1680435053
502,Villa Rica,33.7321,-84.9191,8.78,68,54,3.58,US,1680435054
503,Acapulco,16.8634,-99.8901,24.9,78,0,2.06,MX,1680435054
504,Kaniama,-7.5667,24.1833,24.78,80,69,2.28,CD,1680435054
505,Kieta,-6.2167,155.6333,26.23,83,86,1.43,PG,1680435054
506,Tammisaari,59.9736,23.4339,3.83,41,5,5.36,FI,1680435054
507,Choya,52.0108,86.5467,-3.11,69,36,0.86,RU,1680435054
508,Lander,42.833,-108.7307,0.32,74,0,2.57,US,1680435055
509,Zacualtipan,20.65,-98.6,14.24,96,84,0.28,MX,1680435055
510,Tolaga Bay,-38.3667,178.3,16.81,81,100,2.99,NZ,1680435055
511,Minas,-34.3759,-55.2377,15.83,64,62,2.26,UY,1680435055
512,Blackwater,-23.5833,148.8833,20.37,71,90,4.79,AU,1680435055
513,La Ronge,55.1001,-105.2842,-8.86,79,100,7.72,CA,1680435027
514,Fukue,32.6881,128.8419,14.32,74,0,14.94,JP,1680435055
515,Cap-Chat,49.1001,-66.6821,-1.0,100,100,13.89,CA,1680435057
516,Skibbereen,51.55,-9.2667,10.62,66,92,2.96,IE,1680435058
517,Kruisfontein,-34.0033,24.7314,27.52,43,18,5.47,ZA,1680435058
518,Bintulu,3.1667,113.0333,24.23,94,20,1.54,MY,1680435058
519,Campanha,-21.8361,-45.4006,20.87,80,1,2.04,BR,1680435058
520,Abalak,58.1286,68.5944,6.87,68,96,3.78,RU,1680435058
521,Giyon,8.5333,37.9833,23.23,46,89,2.28,ET,1680435059
522,Tocopilla,-22.092,-70.1979,21.2,82,60,0.58,CL,1680434220
523,Ivaipora,-24.2478,-51.6847,17.18,85,17,2.97,BR,1680434941
524,Palana,59.1167,159.9667,-2.22,84,100,7.87,RU,1680435059
525,La Union,-5.4,-80.75,26.73,74,97,1.92,PE,1680435059
526,Boone,39.0334,-92.3335,5.27,61,2,3.98,US,1680435059
527,San Quintin,30.4833,-115.95,12.04,93,0,3.75,MX,1680435060
528,Popondetta,-8.7537,148.2534,23.47,93,96,1.2,PG,1680435060
529,Padang,-0.9492,100.3543,28.03,82,93,0.73,ID,1680435060
530,Palmer,42.1584,-72.3287,4.44,64,100,9.26,US,1680435060
531,Krasnyy Yar,46.5331,48.3456,15.96,43,100,3.16,RU,1680435060
532,Bowen,-20.0167,148.2333,24.84,88,75,3.88,AU,1680435061
533,Mount Isa,-20.7333,139.5,21.87,49,55,2.57,AU,1680435061
534,Regeneracao,-6.2378,-42.6883,25.22,76,100,2.13,BR,1680435061
535,Richards Bay,-28.783,32.0377,29.86,52,2,4.47,ZA,1680435062
536,Saurimo,-9.6608,20.3916,23.69,75,94,1.22,AO,1680435062
537,Binga,-17.6203,27.3414,27.57,58,83,3.68,ZW,1680435062
538,Gbarnga,6.9956,-9.4722,34.01,44,53,1.32,LR,1680435063
539,Beringovskiy,63.05,179.3167,-15.73,90,22,1.34,RU,1680435063
540,Honningsvag,70.9821,25.9704,-0.14,74,100,2.57,NO,1680435064
541,Zyryanka,65.75,150.85,-27.72,100,40,1.13,RU,1680435065
542,Masterton,-40.9597,175.6575,12.71,93,7,0.94,NZ,1680435065
543,Klaksvik,62.2266,-6.589,7.51,70,8,2.81,FO,1680435065
544,Konakovo,56.7,36.7667,6.88,84,100,4.53,RU,1680435066
545,Whitehorse,60.7161,-135.0538,-5.57,63,75,3.6,CA,1680435066
546,Bandarbeyla,9.4942,50.8122,29.78,61,21,5.39,SO,1680435066
547,Mitsamiouli,-11.3847,43.2844,27.82,79,100,4.57,KM,1680435067
548,Batagay-Alyta,67.8006,130.4114,-20.68,83,42,2.82,RU,1680435067
549,Isagarh,24.8333,77.8833,31.28,20,73,4.86,IN,1680435067
550,Iracoubo,5.4802,-53.2011,26.77,76,38,5.64,GF,1680435068
551,Pili,13.5833,123.3,24.41,86,100,2.0,PH,1680435068
552,Douglas,41.3,-96.167,8.48,43,0,5.66,US,1680435069
553,Puerto Leguizamo,-0.1934,-74.7819,21.48,98,79,0.25,CO,1680435069
554,Alta Floresta,-9.8756,-56.0861,22.29,97,100,0.67,BR,1680435069
555,Sao Felix Do Xingu,-6.6447,-51.995,21.99,99,100,0.71,BR,1680434846
556,Kawambwa,-9.7915,29.0791,22.23,80,100,0.59,ZM,1680435070
557,Itaituba,-4.2761,-55.9836,24.09,100,100,2.57,BR,1680435070
558,Benxi,41.2886,123.765,15.18,28,53,2.22,CN,1680435070
